
{
  "success": true,
  "result": {
    "resource_id": "A01010000C-000674-011",
    "limit": 2000,
    "total": 1613,
    "fields": [
      {
        "type": "text",
        "id": "CityName"
      },
      {
        "type": "text",
        "id": "RegionName"
      },
      {
        "type": "text",
        "id": "Address"
      },
      {
        "type": "text",
        "id": "DeptNm"
      },
      {
        "type": "text",
        "id": "BranchNm"
      },
      {
        "type": "text",
        "id": "Longitude"
      },
      {
        "type": "text",
        "id": "Latitude"
      },
      {
        "type": "text",
        "id": "direct"
      },
      {
        "type": "text",
        "id": "limit"
      }
    ],
    "records": [
      {
        "CityName": "設置縣市",
        "RegionName": "設置市區鄉鎮",
        "Address": "設置地址",
        "DeptNm": "管轄警局",
        "BranchNm": "管轄分局",
        "Longitude": "經度",
        "Latitude": "緯度",
        "direct": "拍攝方向",
        "limit": "速限"
      },
      {
        "CityName": "宜蘭縣",
        "RegionName": "宜蘭市",
        "Address": "宜興橋南端(往羅東)+50m南下",
        "DeptNm": "宜蘭縣政府警察局",
        "BranchNm": "宜蘭分局",
        "Longitude": "121.759873",
        "Latitude": "24.760711",
        "direct": "北向南",
        "limit": "50"
      },
      {
        "CityName": "宜蘭縣",
        "RegionName": "宜蘭市",
        "Address": "中山路1段560號前北上",
        "DeptNm": "宜蘭縣政府警察局",
        "BranchNm": "宜蘭分局",
        "Longitude": "121.761045",
        "Latitude": "24.738028",
        "direct": "南向北",
        "limit": "60"
      },
      {
        "CityName": "宜蘭縣",
        "RegionName": "宜蘭市",
        "Address": "台9線79k+550m環市東路與192線路口北上",
        "DeptNm": "宜蘭縣政府警察局",
        "BranchNm": "宜蘭分局",
        "Longitude": "121.770743",
        "Latitude": "24.767034",
        "direct": "南向北",
        "limit": "70"
      },
      {
        "CityName": "宜蘭縣",
        "RegionName": "宜蘭市",
        "Address": "台9線80k+700m環市東路黎霧橋南端南下",
        "DeptNm": "宜蘭縣政府警察局",
        "BranchNm": "宜蘭分局",
        "Longitude": "121.771352",
        "Latitude": "24.756818",
        "direct": "北向南",
        "limit": "70"
      },
      {
        "CityName": "宜蘭縣",
        "RegionName": "宜蘭市",
        "Address": "台9線81k+650m環市東路北上",
        "DeptNm": "宜蘭縣政府警察局",
        "BranchNm": "宜蘭分局",
        "Longitude": "121.771590",
        "Latitude": "24.748297",
        "direct": "南向北",
        "limit": "70"
      },
      {
        "CityName": "宜蘭縣",
        "RegionName": "宜蘭市",
        "Address": "台9線82k+200m環市東路與宜14線路口南下",
        "DeptNm": "宜蘭縣政府警察局",
        "BranchNm": "宜蘭分局",
        "Longitude": "121.771682",
        "Latitude": "24.743659",
        "direct": "北向南",
        "limit": "70"
      },
      {
        "CityName": "宜蘭縣",
        "RegionName": "宜蘭市",
        "Address": "191線與宜14線路口北上",
        "DeptNm": "宜蘭縣政府警察局",
        "BranchNm": "宜蘭分局",
        "Longitude": "121.781764",
        "Latitude": "24.744093",
        "direct": "南向北",
        "limit": "60"
      },
      {
        "CityName": "宜蘭縣",
        "RegionName": "羅東鎮",
        "Address": "公正路324號西向",
        "DeptNm": "宜蘭縣政府警察局",
        "BranchNm": "羅東分局",
        "Longitude": "121.761418",
        "Latitude": "24.680589",
        "direct": "東向西",
        "limit": "40"
      },
      {
        "CityName": "宜蘭縣",
        "RegionName": "蘇澳鎮",
        "Address": "台9線131ｋ+700ｍ南澳段北上",
        "DeptNm": "宜蘭縣政府警察局",
        "BranchNm": "蘇澳分局",
        "Longitude": "121.793661",
        "Latitude": "24.462545",
        "direct": "南北雙向",
        "limit": "50"
      },
      {
        "CityName": "宜蘭縣",
        "RegionName": "蘇澳鎮",
        "Address": "台9線100k新城段北上",
        "DeptNm": "宜蘭縣政府警察局",
        "BranchNm": "蘇澳分局",
        "Longitude": "121.821268",
        "Latitude": "24.615464",
        "direct": "南北雙向",
        "limit": "60"
      },
      {
        "CityName": "宜蘭縣",
        "RegionName": "蘇澳鎮",
        "Address": "台9線124k+570m新澳隧道北上",
        "DeptNm": "宜蘭縣政府警察局",
        "BranchNm": "蘇澳分局",
        "Longitude": "121.830233",
        "Latitude": "24.490236",
        "direct": "南向北",
        "limit": "40"
      },
      {
        "CityName": "宜蘭縣",
        "RegionName": "蘇澳鎮",
        "Address": "台9線109k+240m東澳隧道南下",
        "DeptNm": "宜蘭縣政府警察局",
        "BranchNm": "蘇澳分局",
        "Longitude": "121.840392",
        "Latitude": "24.551931",
        "direct": "北向南",
        "limit": "60"
      },
      {
        "CityName": "宜蘭縣",
        "RegionName": "蘇澳鎮",
        "Address": "台2線164k+390m港邊段南下",
        "DeptNm": "宜蘭縣政府警察局",
        "BranchNm": "蘇澳分局",
        "Longitude": "121.852780",
        "Latitude": "24.611954",
        "direct": "南北雙向",
        "limit": "70"
      },
      {
        "CityName": "宜蘭縣",
        "RegionName": "蘇澳鎮",
        "Address": "台2線167k+002m移山路北上",
        "DeptNm": "宜蘭縣政府警察局",
        "BranchNm": "蘇澳分局",
        "Longitude": "121.859499",
        "Latitude": "24.590791",
        "direct": "南北雙向",
        "limit": "60"
      },
      {
        "CityName": "宜蘭縣",
        "RegionName": "頭城鎮",
        "Address": "台9線69ｋ+20ｍ北宜路一段南下",
        "DeptNm": "宜蘭縣政府警察局",
        "BranchNm": "礁溪分局",
        "Longitude": "121.792649",
        "Latitude": "24.845619",
        "direct": "南北雙向",
        "limit": "60"
      },
      {
        "CityName": "宜蘭縣",
        "RegionName": "頭城鎮",
        "Address": "宜3線3k+850m宜三路南下",
        "DeptNm": "宜蘭縣政府警察局",
        "BranchNm": "礁溪分局",
        "Longitude": "121.796028",
        "Latitude": "24.849210",
        "direct": "南北雙向",
        "limit": "50"
      },
      {
        "CityName": "宜蘭縣",
        "RegionName": "頭城鎮",
        "Address": "191甲線2ｋ+50ｍ中崙段南下",
        "DeptNm": "宜蘭縣政府警察局",
        "BranchNm": "礁溪分局",
        "Longitude": "121.801373",
        "Latitude": "24.828067",
        "direct": "南北雙向",
        "limit": "60"
      },
      {
        "CityName": "宜蘭縣",
        "RegionName": "頭城鎮",
        "Address": "台2線139k+738ｍ竹安段南下",
        "DeptNm": "宜蘭縣政府警察局",
        "BranchNm": "礁溪分局",
        "Longitude": "121.820688",
        "Latitude": "24.824111",
        "direct": "南北雙向",
        "limit": "60"
      },
      {
        "CityName": "宜蘭縣",
        "RegionName": "頭城鎮",
        "Address": "台2線133k+769ｍ港口段南下",
        "DeptNm": "宜蘭縣政府警察局",
        "BranchNm": "礁溪分局",
        "Longitude": "121.835544",
        "Latitude": "24.871765",
        "direct": "南北雙向",
        "limit": "60"
      },
      {
        "CityName": "宜蘭縣",
        "RegionName": "頭城鎮",
        "Address": "台2線129k+309m梗枋國小南下",
        "DeptNm": "宜蘭縣政府警察局",
        "BranchNm": "礁溪分局",
        "Longitude": "121.863454",
        "Latitude": "24.900975",
        "direct": "南北雙向",
        "limit": "50"
      },
      {
        "CityName": "宜蘭縣",
        "RegionName": "頭城鎮",
        "Address": "台2線128k+754m梗枋段南下",
        "DeptNm": "宜蘭縣政府警察局",
        "BranchNm": "礁溪分局",
        "Longitude": "121.866727",
        "Latitude": "24.903869",
        "direct": "南北雙向",
        "limit": "60"
      },
      {
        "CityName": "宜蘭縣",
        "RegionName": "頭城鎮",
        "Address": "台2線126k+757m北關段北上",
        "DeptNm": "宜蘭縣政府警察局",
        "BranchNm": "礁溪分局",
        "Longitude": "121.879986",
        "Latitude": "24.915021",
        "direct": "南北雙向",
        "limit": "60"
      },
      {
        "CityName": "宜蘭縣",
        "RegionName": "頭城鎮",
        "Address": "台2線123ｋ+642ｍ大溪段北上",
        "DeptNm": "宜蘭縣政府警察局",
        "BranchNm": "礁溪分局",
        "Longitude": "121.891277",
        "Latitude": "24.939224",
        "direct": "南北雙向",
        "limit": "50"
      },
      {
        "CityName": "宜蘭縣",
        "RegionName": "頭城鎮",
        "Address": "台2線122k+634ｍ大溪段南下",
        "DeptNm": "宜蘭縣政府警察局",
        "BranchNm": "礁溪分局",
        "Longitude": "121.900106",
        "Latitude": "24.941515",
        "direct": "北向南",
        "limit": "60"
      },
      {
        "CityName": "宜蘭縣",
        "RegionName": "頭城鎮",
        "Address": "台2線120k+632ｍ蕃薯寮段南下",
        "DeptNm": "宜蘭縣政府警察局",
        "BranchNm": "礁溪分局",
        "Longitude": "121.914235",
        "Latitude": "24.952927",
        "direct": "南北雙向",
        "limit": "60"
      },
      {
        "CityName": "宜蘭縣",
        "RegionName": "頭城鎮",
        "Address": "台2線118k+49m大里段南下",
        "DeptNm": "宜蘭縣政府警察局",
        "BranchNm": "礁溪分局",
        "Longitude": "121.926086",
        "Latitude": "24.970086",
        "direct": "南北雙向",
        "limit": "50"
      },
      {
        "CityName": "宜蘭縣",
        "RegionName": "礁溪鄉",
        "Address": "191甲線6ｋ+600ｍ玉田段北上",
        "DeptNm": "宜蘭縣政府警察局",
        "BranchNm": "礁溪分局",
        "Longitude": "121.784228",
        "Latitude": "24.789582",
        "direct": "南北雙向",
        "limit": "60"
      },
      {
        "CityName": "宜蘭縣",
        "RegionName": "礁溪鄉",
        "Address": "礁溪鄉份尾三路北上(份尾橋南側100公尺處)",
        "DeptNm": "宜蘭縣政府警察局",
        "BranchNm": "礁溪分局",
        "Longitude": "121.787172",
        "Latitude": "24.830685",
        "direct": "南北雙向",
        "limit": "50"
      },
      {
        "CityName": "宜蘭縣",
        "RegionName": "壯圍鄉",
        "Address": "191線與雪隧路口南下",
        "DeptNm": "宜蘭縣政府警察局",
        "BranchNm": "礁溪分局",
        "Longitude": "121.778517",
        "Latitude": "24.766776",
        "direct": "北向南",
        "limit": "60"
      },
      {
        "CityName": "宜蘭縣",
        "RegionName": "壯圍鄉",
        "Address": "宜16線7k+500ｍ新南段西向",
        "DeptNm": "宜蘭縣政府警察局",
        "BranchNm": "礁溪分局",
        "Longitude": "121.783039",
        "Latitude": "24.720304",
        "direct": "東西雙向",
        "limit": "50"
      },
      {
        "CityName": "宜蘭縣",
        "RegionName": "壯圍鄉",
        "Address": "宜16線9ｋ+500ｍ美福段東向",
        "DeptNm": "宜蘭縣政府警察局",
        "BranchNm": "礁溪分局",
        "Longitude": "121.802651",
        "Latitude": "24.719269",
        "direct": "東西雙向",
        "limit": "50"
      },
      {
        "CityName": "宜蘭縣",
        "RegionName": "壯圍鄉",
        "Address": "宜20線1ｋ+150m新南段西向",
        "DeptNm": "宜蘭縣政府警察局",
        "BranchNm": "礁溪分局",
        "Longitude": "121.808557",
        "Latitude": "24.727465",
        "direct": "東西雙向",
        "limit": "60"
      },
      {
        "CityName": "宜蘭縣",
        "RegionName": "壯圍鄉",
        "Address": "台2線147ｋ+40ｍ過嶺國小南下",
        "DeptNm": "宜蘭縣政府警察局",
        "BranchNm": "礁溪分局",
        "Longitude": "121.815483",
        "Latitude": "24.758748",
        "direct": "南北雙向",
        "limit": "60"
      },
      {
        "CityName": "宜蘭縣",
        "RegionName": "壯圍鄉",
        "Address": "台2線142k+480ｍ大福段北上",
        "DeptNm": "宜蘭縣政府警察局",
        "BranchNm": "礁溪分局",
        "Longitude": "121.816581",
        "Latitude": "24.799720",
        "direct": "南北雙向",
        "limit": "60"
      },
      {
        "CityName": "宜蘭縣",
        "RegionName": "壯圍鄉",
        "Address": "台2線150ｋ+199m公館段南下",
        "DeptNm": "宜蘭縣政府警察局",
        "BranchNm": "礁溪分局",
        "Longitude": "121.819155",
        "Latitude": "24.730360",
        "direct": "南北雙向",
        "limit": "60"
      },
      {
        "CityName": "宜蘭縣",
        "RegionName": "員山鄉",
        "Address": "台7線113k+357ｍ內城段東向",
        "DeptNm": "宜蘭縣政府警察局",
        "BranchNm": "宜蘭分局",
        "Longitude": "121.700933",
        "Latitude": "24.717842",
        "direct": "東西雙向",
        "limit": "60"
      },
      {
        "CityName": "宜蘭縣",
        "RegionName": "員山鄉",
        "Address": "宜18-2線9ｋ深溝段西向",
        "DeptNm": "宜蘭縣政府警察局",
        "BranchNm": "宜蘭分局",
        "Longitude": "121.709622",
        "Latitude": "24.707457",
        "direct": "東西雙向",
        "limit": "60"
      },
      {
        "CityName": "宜蘭縣",
        "RegionName": "員山鄉",
        "Address": "台7線115k+865m八甲段西向",
        "DeptNm": "宜蘭縣政府警察局",
        "BranchNm": "宜蘭分局",
        "Longitude": "121.716391",
        "Latitude": "24.732751",
        "direct": "東西雙向",
        "limit": "60"
      },
      {
        "CityName": "宜蘭縣",
        "RegionName": "員山鄉",
        "Address": "宜61線900ｍ深溝段南下",
        "DeptNm": "宜蘭縣政府警察局",
        "BranchNm": "宜蘭分局",
        "Longitude": "121.717964",
        "Latitude": "24.720016",
        "direct": "南北雙向",
        "limit": "60"
      },
      {
        "CityName": "宜蘭縣",
        "RegionName": "員山鄉",
        "Address": "宜61線1ｋ+200ｍ深溝段北上",
        "DeptNm": "宜蘭縣政府警察局",
        "BranchNm": "宜蘭分局",
        "Longitude": "121.718649",
        "Latitude": "24.717430",
        "direct": "南北雙向",
        "limit": "60"
      },
      {
        "CityName": "宜蘭縣",
        "RegionName": "員山鄉",
        "Address": "宜18-2線溪洲路346號東向",
        "DeptNm": "宜蘭縣政府警察局",
        "BranchNm": "宜蘭分局",
        "Longitude": "121.738594",
        "Latitude": "24.714243",
        "direct": "東西雙向",
        "limit": "50"
      },
      {
        "CityName": "宜蘭縣",
        "RegionName": "員山鄉",
        "Address": "宜18-2線溪洲路150號西向",
        "DeptNm": "宜蘭縣政府警察局",
        "BranchNm": "宜蘭分局",
        "Longitude": "121.748119",
        "Latitude": "24.719000",
        "direct": "東西雙向",
        "limit": "50"
      },
      {
        "CityName": "宜蘭縣",
        "RegionName": "冬山鄉",
        "Address": "台9線94k+450ｍ冬山段南下",
        "DeptNm": "宜蘭縣政府警察局",
        "BranchNm": "羅東分局",
        "Longitude": "121.785569",
        "Latitude": "24.645604",
        "direct": "北向南",
        "limit": "60"
      },
      {
        "CityName": "宜蘭縣",
        "RegionName": "五結鄉",
        "Address": "宜22線1k+400ｍ二結段東向",
        "DeptNm": "宜蘭縣政府警察局",
        "BranchNm": "羅東分局",
        "Longitude": "121.766192",
        "Latitude": "24.710798",
        "direct": "東西雙向",
        "limit": "60"
      },
      {
        "CityName": "宜蘭縣",
        "RegionName": "五結鄉",
        "Address": "台7丙線28k+75ｍ中山路東向",
        "DeptNm": "宜蘭縣政府警察局",
        "BranchNm": "羅東分局",
        "Longitude": "121.789493",
        "Latitude": "24.672573",
        "direct": "東西雙向",
        "limit": "60"
      },
      {
        "CityName": "宜蘭縣",
        "RegionName": "五結鄉",
        "Address": "191線與宜24線路口南下",
        "DeptNm": "宜蘭縣政府警察局",
        "BranchNm": "羅東分局",
        "Longitude": "121.791144",
        "Latitude": "24.688986",
        "direct": "北向南",
        "limit": "60"
      },
      {
        "CityName": "宜蘭縣",
        "RegionName": "五結鄉",
        "Address": "191線與196線路口北上",
        "DeptNm": "宜蘭縣政府警察局",
        "BranchNm": "羅東分局",
        "Longitude": "121.792581",
        "Latitude": "24.683813",
        "direct": "南向北",
        "limit": "60"
      },
      {
        "CityName": "宜蘭縣",
        "RegionName": "五結鄉",
        "Address": "五結鄉191線與傳藝路口南下",
        "DeptNm": "宜蘭縣政府警察局",
        "BranchNm": "羅東分局",
        "Longitude": "121.793192",
        "Latitude": "24.680323",
        "direct": "北向南",
        "limit": "60"
      },
      {
        "CityName": "宜蘭縣",
        "RegionName": "五結鄉",
        "Address": "五結鄉台7丙線29K+800M親河路西向",
        "DeptNm": "宜蘭縣政府警察局",
        "BranchNm": "羅東分局",
        "Longitude": "121.805192",
        "Latitude": "24.673484",
        "direct": "東西雙向",
        "limit": "60"
      },
      {
        "CityName": "宜蘭縣",
        "RegionName": "五結鄉",
        "Address": "宜22線6ｋ錦草段西向",
        "DeptNm": "宜蘭縣政府警察局",
        "BranchNm": "羅東分局",
        "Longitude": "121.810574",
        "Latitude": "24.709386",
        "direct": "東西雙向",
        "limit": "60"
      },
      {
        "CityName": "宜蘭縣",
        "RegionName": "五結鄉",
        "Address": "台2線157k+652m利澤段北上",
        "DeptNm": "宜蘭縣政府警察局",
        "BranchNm": "羅東分局",
        "Longitude": "121.828344",
        "Latitude": "24.664686",
        "direct": "南向北",
        "limit": "60"
      },
      {
        "CityName": "宜蘭縣",
        "RegionName": "三星鄉",
        "Address": "196線3ｋ+800ｍ萬富東向",
        "DeptNm": "宜蘭縣政府警察局",
        "BranchNm": "三星分局",
        "Longitude": "121.677256",
        "Latitude": "24.677272",
        "direct": "東西雙向",
        "limit": "60"
      },
      {
        "CityName": "宜蘭縣",
        "RegionName": "三星鄉",
        "Address": "台7丙線18ｋ+500ｍ大隱段東向",
        "DeptNm": "宜蘭縣政府警察局",
        "BranchNm": "三星分局",
        "Longitude": "121.697628",
        "Latitude": "24.667261",
        "direct": "東西雙向",
        "limit": "60"
      },
      {
        "CityName": "宜蘭縣",
        "RegionName": "三星鄉",
        "Address": "台7丙線20ｋ大隱段西向",
        "DeptNm": "宜蘭縣政府警察局",
        "BranchNm": "三星分局",
        "Longitude": "121.712174",
        "Latitude": "24.670205",
        "direct": "東西雙向",
        "limit": "60"
      },
      {
        "CityName": "宜蘭縣",
        "RegionName": "三星鄉",
        "Address": "196線7ｋ+900ｍ大義段西向",
        "DeptNm": "宜蘭縣政府警察局",
        "BranchNm": "三星分局",
        "Longitude": "121.718395",
        "Latitude": "24.687069",
        "direct": "東西雙向",
        "limit": "60"
      },
      {
        "CityName": "宜蘭縣",
        "RegionName": "三星鄉",
        "Address": "宜61線3ｋ+600ｍ大洲段南下",
        "DeptNm": "宜蘭縣政府警察局",
        "BranchNm": "三星分局",
        "Longitude": "121.727883",
        "Latitude": "24.698070",
        "direct": "北向南",
        "limit": "60"
      },
      {
        "CityName": "宜蘭縣",
        "RegionName": "三星鄉",
        "Address": "宜61線3ｋ+800ｍ大洲段北上",
        "DeptNm": "宜蘭縣政府警察局",
        "BranchNm": "三星分局",
        "Longitude": "121.728929",
        "Latitude": "24.696065",
        "direct": "南北雙向",
        "limit": "60"
      },
      {
        "CityName": "宜蘭縣",
        "RegionName": "三星鄉",
        "Address": "196線11ｋ大洲段東向",
        "DeptNm": "宜蘭縣政府警察局",
        "BranchNm": "三星分局",
        "Longitude": "121.742237",
        "Latitude": "24.700826",
        "direct": "東西雙向",
        "limit": "50"
      },
      {
        "CityName": "宜蘭縣",
        "RegionName": "南澳鄉",
        "Address": "台9線130ｋ+450ｍ南澳段南下",
        "DeptNm": "宜蘭縣政府警察局",
        "BranchNm": "蘇澳分局",
        "Longitude": "121.806452",
        "Latitude": "24.467581",
        "direct": "南北雙向",
        "limit": "50"
      },
      {
        "CityName": "宜蘭縣",
        "RegionName": "南澳鄉",
        "Address": "台9線110k+300m東澳隧道北上",
        "DeptNm": "宜蘭縣政府警察局",
        "BranchNm": "蘇澳分局",
        "Longitude": "121.839881",
        "Latitude": "24.547905",
        "direct": "南向北",
        "limit": "60"
      },
      {
        "CityName": "新竹縣",
        "RegionName": "",
        "Address": "台1線54KM+900處",
        "DeptNm": "新竹縣政府警察局",
        "BranchNm": "竹北分局",
        "Longitude": "121.082694",
        "Latitude": "24.886556",
        "direct": "南北雙向",
        "limit": "70"
      },
      {
        "CityName": "新竹縣",
        "RegionName": "竹北市",
        "Address": "中正西路118線3km+500處",
        "DeptNm": "新竹縣政府警察局",
        "BranchNm": "竹北分局",
        "Longitude": "120.971368",
        "Latitude": "24.841570",
        "direct": "東西雙向",
        "limit": "50"
      },
      {
        "CityName": "新竹縣",
        "RegionName": "竹北市",
        "Address": "中華路1432號前(台1線65.5公里)南向",
        "DeptNm": "新竹縣政府警察局",
        "BranchNm": "竹北分局",
        "Longitude": "120.991525",
        "Latitude": "24.863388",
        "direct": "南北雙向",
        "limit": "60"
      },
      {
        "CityName": "新竹縣",
        "RegionName": "竹北市",
        "Address": "西濱公路與埔和路口(台15線64.4公里)南向",
        "DeptNm": "新竹縣政府警察局",
        "BranchNm": "竹北分局",
        "Longitude": "120.996062",
        "Latitude": "24.931687",
        "direct": "北向南",
        "limit": "60"
      },
      {
        "CityName": "新竹縣",
        "RegionName": "竹北市",
        "Address": "中華路1號前(台1線71公里)",
        "DeptNm": "新竹縣政府警察局",
        "BranchNm": "竹北分局",
        "Longitude": "120.997606",
        "Latitude": "24.826324",
        "direct": "北向南",
        "limit": "60"
      },
      {
        "CityName": "新竹縣",
        "RegionName": "竹北市",
        "Address": "台一線大眉南下路口",
        "DeptNm": "新竹縣政府警察局",
        "BranchNm": "竹北分局",
        "Longitude": "121.002075",
        "Latitude": "24.855176",
        "direct": "北往南",
        "limit": "50"
      },
      {
        "CityName": "新竹縣",
        "RegionName": "竹北市",
        "Address": "中華路1138號前",
        "DeptNm": "新竹縣政府警察局",
        "BranchNm": "竹北分局",
        "Longitude": "121.002542",
        "Latitude": "24.855086",
        "direct": "南向北",
        "limit": "50"
      },
      {
        "CityName": "新竹縣",
        "RegionName": "竹北市",
        "Address": "東興路二段316號前(120線7.1公里)雙向",
        "DeptNm": "新竹縣政府警察局",
        "BranchNm": "竹北分局",
        "Longitude": "121.055011",
        "Latitude": "24.797277",
        "direct": "東西雙向",
        "limit": "60"
      },
      {
        "CityName": "新竹縣",
        "RegionName": "竹東鎮",
        "Address": "台三線北上91.2公里",
        "DeptNm": "新竹縣政府警察局",
        "BranchNm": "竹東分局",
        "Longitude": "120.985950",
        "Latitude": "24.697053",
        "direct": "南北雙向",
        "limit": "60"
      },
      {
        "CityName": "新竹縣",
        "RegionName": "竹東鎮",
        "Address": "中興路四段372號前(122線14公里)西向",
        "DeptNm": "新竹縣政府警察局",
        "BranchNm": "竹東分局",
        "Longitude": "121.029247",
        "Latitude": "24.779506",
        "direct": "東向西",
        "limit": "50"
      },
      {
        "CityName": "新竹縣",
        "RegionName": "竹東鎮",
        "Address": "台68線12.55公里(快速道路)西向",
        "DeptNm": "新竹縣政府警察局",
        "BranchNm": "竹東分局",
        "Longitude": "121.029683",
        "Latitude": "24.797769",
        "direct": "東向西",
        "limit": "90"
      },
      {
        "CityName": "新竹縣",
        "RegionName": "竹東鎮",
        "Address": "台68線12.85公里(快速道路)東向",
        "DeptNm": "新竹縣政府警察局",
        "BranchNm": "竹東分局",
        "Longitude": "121.033523",
        "Latitude": "24.795455",
        "direct": "西向東",
        "limit": "90"
      },
      {
        "CityName": "新竹縣",
        "RegionName": "竹東鎮",
        "Address": "中盛村路口(台3線86.5公里)南向",
        "DeptNm": "新竹縣政府警察局",
        "BranchNm": "竹東分局",
        "Longitude": "121.034716",
        "Latitude": "24.697114",
        "direct": "南北雙向",
        "limit": "60"
      },
      {
        "CityName": "新竹縣",
        "RegionName": "竹東鎮",
        "Address": "台3線中豐路老爺山莊路口",
        "DeptNm": "新竹縣政府警察局",
        "BranchNm": "竹東分局",
        "Longitude": "121.078282",
        "Latitude": "24.723765",
        "direct": "南向北",
        "limit": "50"
      },
      {
        "CityName": "新竹縣",
        "RegionName": "竹東鎮",
        "Address": "竹122線18KM+160(中興路一段94-2號)",
        "DeptNm": "新竹縣政府警察局",
        "BranchNm": "竹東分局",
        "Longitude": "121.080060",
        "Latitude": "24.747807",
        "direct": "東西雙向",
        "limit": "50"
      },
      {
        "CityName": "新竹縣",
        "RegionName": "新埔鎮",
        "Address": "文山路亞東段369號西向",
        "DeptNm": "新竹縣政府警察局",
        "BranchNm": "新埔分局",
        "Longitude": "121.057861",
        "Latitude": "24.825338",
        "direct": "東向西",
        "limit": "60"
      },
      {
        "CityName": "新竹縣",
        "RegionName": "新埔鎮",
        "Address": "新關路1046巷口東向",
        "DeptNm": "新竹縣政府警察局",
        "BranchNm": "新埔分局",
        "Longitude": "121.093886",
        "Latitude": "24.822089",
        "direct": "西往東",
        "limit": "60"
      },
      {
        "CityName": "新竹縣",
        "RegionName": "關西鎮",
        "Address": "石光里702號前(118線19.1公里)西向",
        "DeptNm": "新竹縣政府警察局",
        "BranchNm": "新埔分局",
        "Longitude": "121.115873",
        "Latitude": "24.816027",
        "direct": "東往西",
        "limit": "60"
      },
      {
        "CityName": "新竹縣",
        "RegionName": "關西鎮",
        "Address": "南新里新城9鄰1號(台3線62公里)北向",
        "DeptNm": "新竹縣政府警察局",
        "BranchNm": "新埔分局",
        "Longitude": "121.172971",
        "Latitude": "24.765247",
        "direct": "南往北",
        "limit": "50"
      },
      {
        "CityName": "新竹縣",
        "RegionName": "關西鎮",
        "Address": "190號東光陸橋(台3線60.6公里)南向",
        "DeptNm": "新竹縣政府警察局",
        "BranchNm": "新埔分局",
        "Longitude": "121.176171",
        "Latitude": "24.775279",
        "direct": "北向南",
        "limit": "50"
      },
      {
        "CityName": "新竹縣",
        "RegionName": "湖口鄉",
        "Address": "八德路一段35號前(台1線61公里)南向",
        "DeptNm": "新竹縣政府警察局",
        "BranchNm": "竹北分局",
        "Longitude": "121.023464",
        "Latitude": "24.885187",
        "direct": "北向南",
        "limit": "70"
      },
      {
        "CityName": "新竹縣",
        "RegionName": "湖口鄉",
        "Address": "台1線中山路口南向",
        "DeptNm": "新竹縣政府警察局",
        "BranchNm": "竹北分局",
        "Longitude": "121.036312",
        "Latitude": "24.880437",
        "direct": "北向南",
        "limit": "70"
      },
      {
        "CityName": "新竹縣",
        "RegionName": "新豐鄉",
        "Address": "竹北市西濱公路鳳鼻隧道南端入口",
        "DeptNm": "新竹縣政府警察局",
        "BranchNm": "竹北分局",
        "Longitude": "120.954366",
        "Latitude": "24.876579",
        "direct": "南向北",
        "limit": "70"
      },
      {
        "CityName": "新竹縣",
        "RegionName": "新豐鄉",
        "Address": "西濱公路一段鳳鼻隧道南端(台15線69公里)",
        "DeptNm": "新竹縣政府警察局",
        "BranchNm": "竹北分局",
        "Longitude": "120.954570",
        "Latitude": "24.877854",
        "direct": "北向南",
        "limit": "70"
      },
      {
        "CityName": "新竹縣",
        "RegionName": "新豐鄉",
        "Address": "台15線62公里南向",
        "DeptNm": "新竹縣政府警察局",
        "BranchNm": "竹北分局",
        "Longitude": "120.996919",
        "Latitude": "24.932375",
        "direct": "北向南",
        "limit": "60"
      },
      {
        "CityName": "新竹縣",
        "RegionName": "芎林鄉",
        "Address": "富林路三段、文德路口(120線10.4公里)東向",
        "DeptNm": "新竹縣政府警察局",
        "BranchNm": "橫山分局",
        "Longitude": "121.073884",
        "Latitude": "24.774718",
        "direct": "東向西",
        "limit": "60"
      },
      {
        "CityName": "新竹縣",
        "RegionName": "芎林鄉",
        "Address": "富林路二段竹林交流道(120線11.8公里)西向",
        "DeptNm": "新竹縣政府警察局",
        "BranchNm": "橫山分局",
        "Longitude": "121.082240",
        "Latitude": "24.765706",
        "direct": "東向西",
        "limit": "60"
      },
      {
        "CityName": "新竹縣",
        "RegionName": "橫山鄉",
        "Address": "中豐路一段、站前街口(台3線72.9公里)南向",
        "DeptNm": "新竹縣政府警察局",
        "BranchNm": "橫山分局",
        "Longitude": "121.116527",
        "Latitude": "24.720446",
        "direct": "南北雙向",
        "limit": "60"
      },
      {
        "CityName": "新竹縣",
        "RegionName": "寶山鄉",
        "Address": "雙林路一般竹47-1線4km處",
        "DeptNm": "新竹縣政府警察局",
        "BranchNm": "竹東分局",
        "Longitude": "120.958644",
        "Latitude": "24.744226",
        "direct": "南向北",
        "limit": "50"
      },
      {
        "CityName": "新竹縣",
        "RegionName": "寶山鄉",
        "Address": "雙園路2段(竹82線1公里)南向",
        "DeptNm": "新竹縣政府警察局",
        "BranchNm": "竹東分局",
        "Longitude": "120.996428",
        "Latitude": "24.766848",
        "direct": "北向南",
        "limit": "50"
      },
      {
        "CityName": "苗栗縣",
        "RegionName": "苗栗市",
        "Address": "臺13線35.2公里處",
        "DeptNm": "苗栗縣警察局",
        "BranchNm": "苗栗分局",
        "Longitude": "120.792854",
        "Latitude": "24.522364",
        "direct": "南向北",
        "limit": "60"
      },
      {
        "CityName": "苗栗縣",
        "RegionName": "苗栗市",
        "Address": "新川里柑園5號前處",
        "DeptNm": "苗栗縣警察局",
        "BranchNm": "苗栗分局",
        "Longitude": "120.803745",
        "Latitude": "24.578798",
        "direct": "東向西",
        "limit": "60"
      },
      {
        "CityName": "苗栗縣",
        "RegionName": "苗栗市",
        "Address": "臺13線30.3公里處(苗商後方)",
        "DeptNm": "苗栗縣警察局",
        "BranchNm": "苗栗分局",
        "Longitude": "120.813732",
        "Latitude": "24.557383",
        "direct": "南北雙向",
        "limit": "50"
      },
      {
        "CityName": "苗栗縣",
        "RegionName": "苗栗市",
        "Address": "臺13線31.1公里處(信義街口)",
        "DeptNm": "苗栗縣警察局",
        "BranchNm": "苗栗分局",
        "Longitude": "120.813933",
        "Latitude": "24.550495",
        "direct": "南向北",
        "limit": "50"
      },
      {
        "CityName": "苗栗縣",
        "RegionName": "苗栗市",
        "Address": "英才路與文發路 口",
        "DeptNm": "苗栗縣警察局",
        "BranchNm": "苗栗分局",
        "Longitude": "120.815263",
        "Latitude": "24.590336",
        "direct": "東向西",
        "limit": "50"
      },
      {
        "CityName": "苗栗縣",
        "RegionName": "苗栗市",
        "Address": "臺6線(經國路)14.5公里處",
        "DeptNm": "苗栗縣警察局",
        "BranchNm": "苗栗分局",
        "Longitude": "120.831440",
        "Latitude": "24.551406",
        "direct": "東西雙向",
        "limit": "70"
      },
      {
        "CityName": "苗栗縣",
        "RegionName": "苑裡鎮",
        "Address": "臺1線140.8公里處(臨海路口)",
        "DeptNm": "苗栗縣警察局",
        "BranchNm": "通霄分局",
        "Longitude": "120.648248",
        "Latitude": "24.443500",
        "direct": "北向南",
        "limit": "60"
      },
      {
        "CityName": "苗栗縣",
        "RegionName": "苑裡鎮",
        "Address": "苑北里中山路與成功路口處",
        "DeptNm": "苗栗縣警察局",
        "BranchNm": "通霄分局",
        "Longitude": "120.653323",
        "Latitude": "24.446471",
        "direct": "北向南",
        "limit": "50"
      },
      {
        "CityName": "苗栗縣",
        "RegionName": "苑裡鎮",
        "Address": "140線與苗47之1線口處",
        "DeptNm": "苗栗縣警察局",
        "BranchNm": "通霄分局",
        "Longitude": "120.655095",
        "Latitude": "24.419280",
        "direct": "東向西",
        "limit": "50"
      },
      {
        "CityName": "苗栗縣",
        "RegionName": "苑裡鎮",
        "Address": "140線與121線口處",
        "DeptNm": "苗栗縣警察局",
        "BranchNm": "通霄分局",
        "Longitude": "120.671309",
        "Latitude": "24.394587",
        "direct": "東向西",
        "limit": "60"
      },
      {
        "CityName": "苗栗縣",
        "RegionName": "苑裡鎮",
        "Address": "140線8.1公里處",
        "DeptNm": "苗栗縣警察局",
        "BranchNm": "通霄分局",
        "Longitude": "120.685829",
        "Latitude": "24.379950",
        "direct": "西向東",
        "limit": "60"
      },
      {
        "CityName": "苗栗縣",
        "RegionName": "通霄鎮",
        "Address": "臺1線137.2公里處(五福國小陸橋下)",
        "DeptNm": "苗栗縣警察局",
        "BranchNm": "通霄分局",
        "Longitude": "120.666221",
        "Latitude": "24.469824",
        "direct": "南向北",
        "limit": "60"
      },
      {
        "CityName": "苗栗縣",
        "RegionName": "通霄鎮",
        "Address": "臺1線134.7公里與121線口處",
        "DeptNm": "苗栗縣警察局",
        "BranchNm": "通霄分局",
        "Longitude": "120.684067",
        "Latitude": "24.481679",
        "direct": "北向南",
        "limit": "60"
      },
      {
        "CityName": "苗栗縣",
        "RegionName": "通霄鎮",
        "Address": "128線2.4公里處",
        "DeptNm": "苗栗縣警察局",
        "BranchNm": "通霄分局",
        "Longitude": "120.699129",
        "Latitude": "24.496457",
        "direct": "東向西",
        "limit": "60"
      },
      {
        "CityName": "苗栗縣",
        "RegionName": "通霄鎮",
        "Address": "臺1線124.8公里處(啟新國中前)",
        "DeptNm": "苗栗縣警察局",
        "BranchNm": "通霄分局",
        "Longitude": "120.709693",
        "Latitude": "24.563620",
        "direct": "南向北",
        "limit": "60"
      },
      {
        "CityName": "苗栗縣",
        "RegionName": "竹南鎮",
        "Address": "臺1線124.1公里處(拱天宮前)",
        "DeptNm": "苗栗縣警察局",
        "BranchNm": "通霄分局",
        "Longitude": "120.712094",
        "Latitude": "24.569326",
        "direct": "北向南",
        "limit": "60"
      },
      {
        "CityName": "苗栗縣",
        "RegionName": "竹南鎮",
        "Address": "臺1己線1.3公里與明勝路口處",
        "DeptNm": "苗栗縣警察局",
        "BranchNm": "竹南分局",
        "Longitude": "120.855564",
        "Latitude": "24.671748",
        "direct": "東向西",
        "limit": "60"
      },
      {
        "CityName": "苗栗縣",
        "RegionName": "竹南鎮",
        "Address": "臺61線91公里快(側)車道與博愛街口處",
        "DeptNm": "苗栗縣警察局",
        "BranchNm": "竹南分局",
        "Longitude": "120.859948",
        "Latitude": "24.693742",
        "direct": "南向北",
        "limit": "40"
      },
      {
        "CityName": "苗栗縣",
        "RegionName": "竹南鎮",
        "Address": "臺61線90.4公里與苗3-3線路口處",
        "DeptNm": "苗栗縣警察局",
        "BranchNm": "竹南分局",
        "Longitude": "120.864778",
        "Latitude": "24.697728",
        "direct": "北向南",
        "limit": "80"
      },
      {
        "CityName": "苗栗縣",
        "RegionName": "竹南鎮",
        "Address": "臺1己線3公里處",
        "DeptNm": "苗栗縣警察局",
        "BranchNm": "竹南分局",
        "Longitude": "120.870984",
        "Latitude": "24.671584",
        "direct": "西向東",
        "limit": "60"
      },
      {
        "CityName": "苗栗縣",
        "RegionName": "竹南鎮",
        "Address": "環市路與公教路口處（清寧橋前）",
        "DeptNm": "苗栗縣警察局",
        "BranchNm": "竹南分局",
        "Longitude": "120.877181",
        "Latitude": "24.692723",
        "direct": "東向西",
        "limit": "60"
      },
      {
        "CityName": "苗栗縣",
        "RegionName": "竹南鎮",
        "Address": "臺13線永貞路與公園路口處",
        "DeptNm": "苗栗縣警察局",
        "BranchNm": "竹南分局",
        "Longitude": "120.885425",
        "Latitude": "24.690917",
        "direct": "北向南",
        "limit": "60"
      },
      {
        "CityName": "苗栗縣",
        "RegionName": "竹南鎮",
        "Address": "臺13線2.5公里與友義路口處",
        "DeptNm": "苗栗縣警察局",
        "BranchNm": "竹南分局",
        "Longitude": "120.904584",
        "Latitude": "24.723229",
        "direct": "南向北",
        "limit": "60"
      },
      {
        "CityName": "苗栗縣",
        "RegionName": "竹南鎮",
        "Address": "臺1線與苗2線口處(科學路口)",
        "DeptNm": "苗栗縣警察局",
        "BranchNm": "竹南分局",
        "Longitude": "120.922112",
        "Latitude": "24.713758",
        "direct": "南向北",
        "limit": "70"
      },
      {
        "CityName": "苗栗縣",
        "RegionName": "頭份市",
        "Address": "臺1線與苗10線口處",
        "DeptNm": "苗栗縣警察局",
        "BranchNm": "頭份分局",
        "Longitude": "120.878749",
        "Latitude": "24.662030",
        "direct": "北向南",
        "limit": "70"
      },
      {
        "CityName": "苗栗縣",
        "RegionName": "頭份市",
        "Address": "臺1線98.3公里處",
        "DeptNm": "苗栗縣警察局",
        "BranchNm": "頭份分局",
        "Longitude": "120.882181",
        "Latitude": "24.663144",
        "direct": "南向北",
        "limit": "70"
      },
      {
        "CityName": "苗栗縣",
        "RegionName": "頭份市",
        "Address": "臺13線12.1公里處（尖山國小前）",
        "DeptNm": "苗栗縣警察局",
        "BranchNm": "頭份分局",
        "Longitude": "120.882880",
        "Latitude": "24.653469",
        "direct": "南向北",
        "limit": "60"
      },
      {
        "CityName": "苗栗縣",
        "RegionName": "頭份市",
        "Address": "永貞路與勝利街口",
        "DeptNm": "苗栗縣警察局",
        "BranchNm": "頭份分局",
        "Longitude": "120.885448",
        "Latitude": "24.695210",
        "direct": "北向南",
        "limit": "60"
      },
      {
        "CityName": "苗栗縣",
        "RegionName": "頭份市",
        "Address": "中華路440號處",
        "DeptNm": "苗栗縣警察局",
        "BranchNm": "頭份分局",
        "Longitude": "120.891021",
        "Latitude": "24.674002",
        "direct": "南向北",
        "limit": "60"
      },
      {
        "CityName": "苗栗縣",
        "RegionName": "頭份市",
        "Address": "臺1線95.2公里處(紡安紡織公司口)",
        "DeptNm": "苗栗縣警察局",
        "BranchNm": "頭份分局",
        "Longitude": "120.894918",
        "Latitude": "24.683173",
        "direct": "南向北",
        "limit": "60"
      },
      {
        "CityName": "苗栗縣",
        "RegionName": "頭份市",
        "Address": "中央路(頭份國中前)",
        "DeptNm": "苗栗縣警察局",
        "BranchNm": "頭份分局",
        "Longitude": "120.901522",
        "Latitude": "24.692189",
        "direct": "東西雙向",
        "limit": "50"
      },
      {
        "CityName": "苗栗縣",
        "RegionName": "頭份市",
        "Address": "臺1線91.6公里與科東二路口處",
        "DeptNm": "苗栗縣警察局",
        "BranchNm": "頭份分局",
        "Longitude": "120.902065",
        "Latitude": "24.685159",
        "direct": "北向南",
        "limit": "60"
      },
      {
        "CityName": "苗栗縣",
        "RegionName": "頭份市",
        "Address": "中華路與自強路口",
        "DeptNm": "苗栗縣警察局",
        "BranchNm": "頭份分局",
        "Longitude": "120.913100",
        "Latitude": "24.690813",
        "direct": "北向南",
        "limit": "60"
      },
      {
        "CityName": "苗栗縣",
        "RegionName": "頭份市",
        "Address": "124甲線與中華路口",
        "DeptNm": "苗栗縣警察局",
        "BranchNm": "頭份分局",
        "Longitude": "120.915227",
        "Latitude": "24.693080",
        "direct": "東向西",
        "limit": "50"
      },
      {
        "CityName": "苗栗縣",
        "RegionName": "頭份市",
        "Address": "124甲線1公里東向與土牛社區路口處",
        "DeptNm": "苗栗縣警察局",
        "BranchNm": "頭份分局",
        "Longitude": "120.923691",
        "Latitude": "24.690244",
        "direct": "西向東",
        "limit": "50"
      },
      {
        "CityName": "苗栗縣",
        "RegionName": "頭份市",
        "Address": "124甲線1公里西向與土牛社區路口處",
        "DeptNm": "苗栗縣警察局",
        "BranchNm": "頭份分局",
        "Longitude": "120.924235",
        "Latitude": "24.689921",
        "direct": "東向西",
        "limit": "50"
      },
      {
        "CityName": "苗栗縣",
        "RegionName": "頭份市",
        "Address": "中正一路與124甲線路口",
        "DeptNm": "苗栗縣警察局",
        "BranchNm": "頭份分局",
        "Longitude": "120.929125",
        "Latitude": "24.686438",
        "direct": "東向西",
        "limit": "50"
      },
      {
        "CityName": "苗栗縣",
        "RegionName": "頭份市",
        "Address": "124線8.45公里處",
        "DeptNm": "苗栗縣警察局",
        "BranchNm": "頭份分局",
        "Longitude": "120.936025",
        "Latitude": "24.685402",
        "direct": "東向西",
        "limit": "50"
      },
      {
        "CityName": "苗栗縣",
        "RegionName": "頭份市",
        "Address": "124線9.8公里處",
        "DeptNm": "苗栗縣警察局",
        "BranchNm": "頭份分局",
        "Longitude": "120.948347",
        "Latitude": "24.680125",
        "direct": "西向東",
        "limit": "50"
      },
      {
        "CityName": "苗栗縣",
        "RegionName": "頭份市",
        "Address": "124線10.75公里處",
        "DeptNm": "苗栗縣警察局",
        "BranchNm": "頭份分局",
        "Longitude": "120.957032",
        "Latitude": "24.681977",
        "direct": "東向西",
        "limit": "50"
      },
      {
        "CityName": "苗栗縣",
        "RegionName": "後龍鎮",
        "Address": "臺61線與苗11線口處",
        "DeptNm": "苗栗縣警察局",
        "BranchNm": "竹南分局",
        "Longitude": "120.783275",
        "Latitude": "24.637378",
        "direct": "南向北",
        "limit": "80"
      },
      {
        "CityName": "苗栗縣",
        "RegionName": "後龍鎮",
        "Address": "臺6線3.7公里處(後龍交流道附近)",
        "DeptNm": "苗栗縣警察局",
        "BranchNm": "竹南分局",
        "Longitude": "120.789554",
        "Latitude": "24.594868",
        "direct": "西向東",
        "limit": "60"
      },
      {
        "CityName": "苗栗縣",
        "RegionName": "後龍鎮",
        "Address": "臺1線與成功路口處",
        "DeptNm": "苗栗縣警察局",
        "BranchNm": "竹南分局",
        "Longitude": "120.794642",
        "Latitude": "24.613920",
        "direct": "南向北",
        "limit": "60"
      },
      {
        "CityName": "苗栗縣",
        "RegionName": "後龍鎮",
        "Address": "臺13甲線12.4公里處",
        "DeptNm": "苗栗縣警察局",
        "BranchNm": "竹南分局",
        "Longitude": "120.832245",
        "Latitude": "24.607538",
        "direct": "北向南",
        "limit": "60"
      },
      {
        "CityName": "苗栗縣",
        "RegionName": "卓蘭鎮",
        "Address": "臺3線146.8公里處（豐田國小旁）",
        "DeptNm": "苗栗縣警察局",
        "BranchNm": "大湖分局",
        "Longitude": "120.823843",
        "Latitude": "24.324601",
        "direct": "北向南",
        "limit": "60"
      },
      {
        "CityName": "苗栗縣",
        "RegionName": "大湖鄉",
        "Address": "臺3線137.2公里",
        "DeptNm": "苗栗縣警察局",
        "BranchNm": "大湖分局",
        "Longitude": "120.842677",
        "Latitude": "24.373880",
        "direct": "南向北",
        "limit": "60"
      },
      {
        "CityName": "苗栗縣",
        "RegionName": "大湖鄉",
        "Address": "臺3線與苗55線口處(南湖國小前)",
        "DeptNm": "苗栗縣警察局",
        "BranchNm": "大湖分局",
        "Longitude": "120.860429",
        "Latitude": "24.395475",
        "direct": "南向北",
        "limit": "60"
      },
      {
        "CityName": "苗栗縣",
        "RegionName": "大湖鄉",
        "Address": "臺3線131.6公里處",
        "DeptNm": "苗栗縣警察局",
        "BranchNm": "大湖分局",
        "Longitude": "120.865290",
        "Latitude": "24.409588",
        "direct": "南向北",
        "limit": "60"
      },
      {
        "CityName": "苗栗縣",
        "RegionName": "大湖鄉",
        "Address": "臺3線與中原路口處",
        "DeptNm": "苗栗縣警察局",
        "BranchNm": "大湖分局",
        "Longitude": "120.867704",
        "Latitude": "24.428796",
        "direct": "南向北",
        "limit": "60"
      },
      {
        "CityName": "苗栗縣",
        "RegionName": "公館鄉",
        "Address": "臺72線24公里處",
        "DeptNm": "苗栗縣警察局",
        "BranchNm": "苗栗分局",
        "Longitude": "120.818224",
        "Latitude": "24.468550",
        "direct": "東西雙向",
        "limit": "80"
      },
      {
        "CityName": "苗栗縣",
        "RegionName": "公館鄉",
        "Address": "119甲線(沿山道)3.4公里處",
        "DeptNm": "苗栗縣警察局",
        "BranchNm": "苗栗分局",
        "Longitude": "120.835365",
        "Latitude": "24.512255",
        "direct": "北向南",
        "limit": "60"
      },
      {
        "CityName": "苗栗縣",
        "RegionName": "銅鑼鄉",
        "Address": "臺13線與苗38－1線口處（外環道與九湖橋頭）",
        "DeptNm": "苗栗縣警察局",
        "BranchNm": "苗栗分局",
        "Longitude": "120.781353",
        "Latitude": "24.478887",
        "direct": "北向南",
        "limit": "60"
      },
      {
        "CityName": "苗栗縣",
        "RegionName": "銅鑼鄉",
        "Address": "臺13線與128線口處",
        "DeptNm": "苗栗縣警察局",
        "BranchNm": "苗栗分局",
        "Longitude": "120.781407",
        "Latitude": "24.494358",
        "direct": "北向南",
        "limit": "60"
      },
      {
        "CityName": "苗栗縣",
        "RegionName": "銅鑼鄉",
        "Address": "128線與苗27線口處",
        "DeptNm": "苗栗縣警察局",
        "BranchNm": "苗栗分局",
        "Longitude": "120.808760",
        "Latitude": "24.498888",
        "direct": "北向南",
        "limit": "60"
      },
      {
        "CityName": "苗栗縣",
        "RegionName": "銅鑼鄉",
        "Address": "臺72線與119甲線口處",
        "DeptNm": "苗栗縣警察局",
        "BranchNm": "苗栗分局",
        "Longitude": "120.809230",
        "Latitude": "24.477289",
        "direct": "東向西",
        "limit": "80"
      },
      {
        "CityName": "苗栗縣",
        "RegionName": "南庄鄉",
        "Address": "臺3線與苗20線口處",
        "DeptNm": "苗栗縣警察局",
        "BranchNm": "頭份分局",
        "Longitude": "120.955829",
        "Latitude": "24.639529",
        "direct": "南向北",
        "limit": "60"
      },
      {
        "CityName": "苗栗縣",
        "RegionName": "三義鄉",
        "Address": "140線15.3公里處",
        "DeptNm": "苗栗縣警察局",
        "BranchNm": "苗栗分局",
        "Longitude": "120.742045",
        "Latitude": "24.350139",
        "direct": "東西向",
        "limit": "60"
      },
      {
        "CityName": "苗栗縣",
        "RegionName": "三義鄉",
        "Address": "臺13線52.4公里處(龍騰派出所前)",
        "DeptNm": "苗栗縣警察局",
        "BranchNm": "苗栗分局",
        "Longitude": "120.749863",
        "Latitude": "24.378527",
        "direct": "北向南",
        "limit": "60"
      },
      {
        "CityName": "苗栗縣",
        "RegionName": "三義鄉",
        "Address": "140線20公里處",
        "DeptNm": "苗栗縣警察局",
        "BranchNm": "苗栗分局",
        "Longitude": "120.774789",
        "Latitude": "24.323369",
        "direct": "東西雙向",
        "limit": "60"
      },
      {
        "CityName": "苗栗縣",
        "RegionName": "造橋鄉",
        "Address": "臺1線102.8公里處（育達科技大學前）",
        "DeptNm": "苗栗縣警察局",
        "BranchNm": "竹南分局",
        "Longitude": "120.845000",
        "Latitude": "24.646928",
        "direct": "南向北",
        "limit": "70"
      },
      {
        "CityName": "苗栗縣",
        "RegionName": "造橋鄉",
        "Address": "南外環道0.4公里處",
        "DeptNm": "苗栗縣警察局",
        "BranchNm": "竹南分局",
        "Longitude": "120.846039",
        "Latitude": "24.622056",
        "direct": "南北雙向",
        "limit": "60"
      },
      {
        "CityName": "苗栗縣",
        "RegionName": "造橋鄉",
        "Address": "臺1線與苗9線口處（談文派出所前）",
        "DeptNm": "苗栗縣警察局",
        "BranchNm": "竹南分局",
        "Longitude": "120.852212",
        "Latitude": "24.653536",
        "direct": "南向北",
        "limit": "70"
      },
      {
        "CityName": "苗栗縣",
        "RegionName": "三灣鄉",
        "Address": "臺3線102.8公里處",
        "DeptNm": "苗栗縣警察局",
        "BranchNm": "頭份分局",
        "Longitude": "120.949279",
        "Latitude": "24.616138",
        "direct": "南北雙向",
        "limit": "60"
      },
      {
        "CityName": "苗栗縣",
        "RegionName": "三灣鄉",
        "Address": "臺3線101.5公里處(大河老街口)",
        "DeptNm": "苗栗縣警察局",
        "BranchNm": "頭份分局",
        "Longitude": "120.949903",
        "Latitude": "24.619045",
        "direct": "南向北",
        "limit": "60"
      },
      {
        "CityName": "苗栗縣",
        "RegionName": "三灣鄉",
        "Address": "臺3線95.5公里處",
        "DeptNm": "苗栗縣警察局",
        "BranchNm": "頭份分局",
        "Longitude": "120.965463",
        "Latitude": "24.665935",
        "direct": "南向北",
        "limit": "60"
      },
      {
        "CityName": "苗栗縣",
        "RegionName": "獅潭鄉",
        "Address": "臺3線108公里處",
        "DeptNm": "苗栗縣警察局",
        "BranchNm": "大湖分局",
        "Longitude": "120.714829",
        "Latitude": "23.803983",
        "direct": "南、北雙向",
        "limit": "60"
      },
      {
        "CityName": "苗栗縣",
        "RegionName": "獅潭鄉",
        "Address": "臺3線122.8公里",
        "DeptNm": "苗栗縣警察局",
        "BranchNm": "大湖分局",
        "Longitude": "120.889738",
        "Latitude": "24.476599",
        "direct": "北向南",
        "limit": "60"
      },
      {
        "CityName": "苗栗縣",
        "RegionName": "獅潭鄉",
        "Address": "臺3線120.9公里處",
        "DeptNm": "苗栗縣警察局",
        "BranchNm": "大湖分局",
        "Longitude": "120.899011",
        "Latitude": "24.488767",
        "direct": "北向南",
        "limit": "60"
      },
      {
        "CityName": "苗栗縣",
        "RegionName": "獅潭鄉",
        "Address": "臺3線119.6公里",
        "DeptNm": "苗栗縣警察局",
        "BranchNm": "大湖分局",
        "Longitude": "120.902361",
        "Latitude": "24.498958",
        "direct": "南向北",
        "limit": "60"
      },
      {
        "CityName": "苗栗縣",
        "RegionName": "獅潭鄉",
        "Address": "臺3線111.8公里處",
        "DeptNm": "苗栗縣警察局",
        "BranchNm": "大湖分局",
        "Longitude": "120.916464",
        "Latitude": "24.529580",
        "direct": "北向南",
        "limit": "60"
      },
      {
        "CityName": "苗栗縣",
        "RegionName": "獅潭鄉",
        "Address": "臺3線113.5公里處",
        "DeptNm": "苗栗縣警察局",
        "BranchNm": "大湖分局",
        "Longitude": "120.916464",
        "Latitude": "24.529580",
        "direct": "北向南",
        "limit": "60"
      },
      {
        "CityName": "苗栗縣",
        "RegionName": "獅潭鄉",
        "Address": "臺3線113.1公里處(獅潭國中旁)",
        "DeptNm": "苗栗縣警察局",
        "BranchNm": "大湖分局",
        "Longitude": "120.921745",
        "Latitude": "24.542200",
        "direct": "北向南",
        "limit": "60"
      },
      {
        "CityName": "彰化縣",
        "RegionName": "彰化市",
        "Address": "金馬、忠誠路口",
        "DeptNm": "彰化縣警察局",
        "BranchNm": "彰化分局",
        "Longitude": "120.531110",
        "Latitude": "24.084720",
        "direct": "南向",
        "limit": "70"
      },
      {
        "CityName": "彰化縣",
        "RegionName": "彰化市",
        "Address": "中山、孔門路口",
        "DeptNm": "彰化縣警察局",
        "BranchNm": "彰化分局",
        "Longitude": "120.544720",
        "Latitude": "24.078610",
        "direct": "北向",
        "limit": "50"
      },
      {
        "CityName": "彰化縣",
        "RegionName": "彰化市",
        "Address": "建國北路",
        "DeptNm": "彰化縣警察局",
        "BranchNm": "彰化分局",
        "Longitude": "120.550560",
        "Latitude": "24.091940",
        "direct": "西向",
        "limit": "50"
      },
      {
        "CityName": "彰化縣",
        "RegionName": "彰化市",
        "Address": "中興路與介壽橋口",
        "DeptNm": "彰化縣警察局",
        "BranchNm": "彰化分局",
        "Longitude": "120.552500",
        "Latitude": "24.070280",
        "direct": "西向",
        "limit": "50"
      },
      {
        "CityName": "彰化縣",
        "RegionName": "彰化市",
        "Address": "中山、中正路口",
        "DeptNm": "彰化縣警察局",
        "BranchNm": "彰化分局",
        "Longitude": "120.552500",
        "Latitude": "24.083890",
        "direct": "北向",
        "limit": "50"
      },
      {
        "CityName": "彰化縣",
        "RegionName": "彰化市",
        "Address": "台74甲線與彰員路口",
        "DeptNm": "彰化縣警察局",
        "BranchNm": "彰化分局",
        "Longitude": "120.555560",
        "Latitude": "24.023330",
        "direct": "南向",
        "limit": "70"
      },
      {
        "CityName": "彰化縣",
        "RegionName": "彰化市",
        "Address": "金馬路一段、泰和路二段415巷口",
        "DeptNm": "彰化縣警察局",
        "BranchNm": "彰化分局",
        "Longitude": "120.557220",
        "Latitude": "24.098330",
        "direct": "北向",
        "limit": "70"
      },
      {
        "CityName": "彰化縣",
        "RegionName": "彰化市",
        "Address": "彰化市金馬東路與金馬東路317巷口",
        "DeptNm": "彰化縣警察局",
        "BranchNm": "彰化分局",
        "Longitude": "120.575753",
        "Latitude": "24.093751",
        "direct": "南向",
        "limit": "70"
      },
      {
        "CityName": "彰化縣",
        "RegionName": "彰化市",
        "Address": "台1線186.8公里",
        "DeptNm": "彰化縣警察局",
        "BranchNm": "彰化分局",
        "Longitude": "120.580280",
        "Latitude": "24.101110",
        "direct": "北向",
        "limit": "70"
      },
      {
        "CityName": "彰化縣",
        "RegionName": "彰化市",
        "Address": "台74甲線3.4公里",
        "DeptNm": "彰化縣警察局",
        "BranchNm": "彰化分局",
        "Longitude": "120.593662",
        "Latitude": "24.073111",
        "direct": "南向",
        "limit": "70"
      },
      {
        "CityName": "彰化縣",
        "RegionName": "彰化市",
        "Address": "台74甲線2.2公里",
        "DeptNm": "彰化縣警察局",
        "BranchNm": "彰化分局",
        "Longitude": "120.594440",
        "Latitude": "24.082220",
        "direct": "東西雙向",
        "limit": "70"
      },
      {
        "CityName": "彰化縣",
        "RegionName": "彰化市",
        "Address": "台14線、福興路口",
        "DeptNm": "彰化縣警察局",
        "BranchNm": "彰化分局",
        "Longitude": "120.621940",
        "Latitude": "24.045280",
        "direct": "東向",
        "limit": "70"
      },
      {
        "CityName": "彰化縣",
        "RegionName": "鹿港鎮",
        "Address": "台17線31.7公里",
        "DeptNm": "彰化縣警察局",
        "BranchNm": "鹿港分局",
        "Longitude": "120.445830",
        "Latitude": "24.086390",
        "direct": "北向",
        "limit": "70"
      },
      {
        "CityName": "彰化縣",
        "RegionName": "鹿港鎮",
        "Address": "台17線31.3公里(長安宮前)",
        "DeptNm": "彰化縣警察局",
        "BranchNm": "鹿港分局",
        "Longitude": "120.448060",
        "Latitude": "24.090830",
        "direct": "南向",
        "limit": "70"
      },
      {
        "CityName": "彰化縣",
        "RegionName": "和美鎮",
        "Address": "線東路五段291號南側170公尺處",
        "DeptNm": "彰化縣警察局",
        "BranchNm": "和美分局",
        "Longitude": "120.489979",
        "Latitude": "24.126819",
        "direct": "北向",
        "limit": "60"
      },
      {
        "CityName": "彰化縣",
        "RegionName": "和美鎮",
        "Address": "和美鎮和港路與西興路、北明路口",
        "DeptNm": "彰化縣警察局",
        "BranchNm": "和美分局",
        "Longitude": "120.495883",
        "Latitude": "24.114036",
        "direct": "北向",
        "limit": "60"
      },
      {
        "CityName": "彰化縣",
        "RegionName": "和美鎮",
        "Address": "彰美、中興路口",
        "DeptNm": "彰化縣警察局",
        "BranchNm": "和美分局",
        "Longitude": "120.524170",
        "Latitude": "24.099170",
        "direct": "西向",
        "limit": "60"
      },
      {
        "CityName": "彰化縣",
        "RegionName": "福興鄉",
        "Address": "沿海路、龍舟路路口",
        "DeptNm": "彰化縣警察局",
        "BranchNm": "鹿港分局",
        "Longitude": "120.431013",
        "Latitude": "24.048855",
        "direct": "西向",
        "limit": "50"
      },
      {
        "CityName": "彰化縣",
        "RegionName": "福興鄉",
        "Address": "福興鄉縣道144線與南環路口",
        "DeptNm": "彰化縣警察局",
        "BranchNm": "鹿港分局",
        "Longitude": "120.444224",
        "Latitude": "24.033230",
        "direct": "東向",
        "limit": "70"
      },
      {
        "CityName": "彰化縣",
        "RegionName": "福興鄉",
        "Address": "福興鄉彰鹿路6段與彰鹿路6段314巷路口",
        "DeptNm": "彰化縣警察局",
        "BranchNm": "鹿港分局",
        "Longitude": "120.462977",
        "Latitude": "24.046333",
        "direct": "西向",
        "limit": "60"
      },
      {
        "CityName": "彰化縣",
        "RegionName": "福興鄉",
        "Address": "台19線、番花路口",
        "DeptNm": "彰化縣警察局",
        "BranchNm": "鹿港分局",
        "Longitude": "120.488610",
        "Latitude": "24.016110",
        "direct": "南向",
        "limit": "60"
      },
      {
        "CityName": "彰化縣",
        "RegionName": "秀水鄉",
        "Address": "彰鹿路、民意街口",
        "DeptNm": "彰化縣警察局",
        "BranchNm": "鹿港分局",
        "Longitude": "120.496674",
        "Latitude": "24.050226",
        "direct": "東向",
        "limit": "60"
      },
      {
        "CityName": "彰化縣",
        "RegionName": "秀水鄉",
        "Address": "台19線、安鶴路口",
        "DeptNm": "彰化縣警察局",
        "BranchNm": "鹿港分局",
        "Longitude": "120.511110",
        "Latitude": "24.050560",
        "direct": "北向",
        "limit": "60"
      },
      {
        "CityName": "彰化縣",
        "RegionName": "花壇鄉",
        "Address": "台1線198.4公里",
        "DeptNm": "彰化縣警察局",
        "BranchNm": "彰化分局",
        "Longitude": "120.538890",
        "Latitude": "24.026940",
        "direct": "",
        "limit": ""
      },
      {
        "CityName": "彰化縣",
        "RegionName": "花壇鄉",
        "Address": "中山路1段95號(福安宮前)",
        "DeptNm": "彰化縣警察局",
        "BranchNm": "彰化分局",
        "Longitude": "120.543890",
        "Latitude": "24.021670",
        "direct": "北向",
        "limit": "70"
      },
      {
        "CityName": "彰化縣",
        "RegionName": "芬園鄉",
        "Address": "芬園鄉大彰路與縣安路口",
        "DeptNm": "彰化縣警察局",
        "BranchNm": "彰化分局",
        "Longitude": "120.626873",
        "Latitude": "24.010653",
        "direct": "東向",
        "limit": "50"
      },
      {
        "CityName": "彰化縣",
        "RegionName": "員林市",
        "Address": "莒光路、員鹿路路口",
        "DeptNm": "彰化縣警察局",
        "BranchNm": "員林分局",
        "Longitude": "120.566196",
        "Latitude": "23.957156",
        "direct": "南向",
        "limit": "60"
      },
      {
        "CityName": "彰化縣",
        "RegionName": "員林市",
        "Address": "員林大道(30米外環道)、員集路口",
        "DeptNm": "彰化縣警察局",
        "BranchNm": "員林分局",
        "Longitude": "120.575981",
        "Latitude": "23.947822",
        "direct": "西向",
        "limit": "50"
      },
      {
        "CityName": "彰化縣",
        "RegionName": "溪湖鎮",
        "Address": "溪湖鎮彰水路台19線、海豐路口",
        "DeptNm": "彰化縣警察局",
        "BranchNm": "溪湖分局",
        "Longitude": "120.482855",
        "Latitude": "23.937469",
        "direct": "南向",
        "limit": "70"
      },
      {
        "CityName": "彰化縣",
        "RegionName": "田中鎮",
        "Address": "田中鎮斗中路與大社南路(彰95高鐵站連接道路)路口",
        "DeptNm": "彰化縣警察局",
        "BranchNm": "田中分局",
        "Longitude": "120.576788",
        "Latitude": "23.862650",
        "direct": "西向",
        "limit": "60"
      },
      {
        "CityName": "彰化縣",
        "RegionName": "田中鎮",
        "Address": "縣141線13.3公里南下",
        "DeptNm": "彰化縣警察局",
        "BranchNm": "田中分局",
        "Longitude": "120.594440",
        "Latitude": "23.845830",
        "direct": "南向",
        "limit": "60"
      },
      {
        "CityName": "彰化縣",
        "RegionName": "田中鎮",
        "Address": "員集路、東閔路路口",
        "DeptNm": "彰化縣警察局",
        "BranchNm": "田中分局",
        "Longitude": "120.601130",
        "Latitude": "23.839055",
        "direct": "北向",
        "limit": "60"
      },
      {
        "CityName": "彰化縣",
        "RegionName": "大村鄉",
        "Address": "台1線201.4公里",
        "DeptNm": "彰化縣警察局",
        "BranchNm": "員林分局",
        "Longitude": "120.561940",
        "Latitude": "23.944170",
        "direct": "南北雙向",
        "limit": "70"
      },
      {
        "CityName": "彰化縣",
        "RegionName": "大村鄉",
        "Address": "縣146線12.3公里中正東路東往西",
        "DeptNm": "彰化縣警察局",
        "BranchNm": "員林分局",
        "Longitude": "120.563610",
        "Latitude": "23.989170",
        "direct": "西向",
        "limit": "60"
      },
      {
        "CityName": "彰化縣",
        "RegionName": "埔鹽鄉",
        "Address": "埔鹽鄉彰水路二段與中山路口",
        "DeptNm": "彰化縣警察局",
        "BranchNm": "溪湖分局",
        "Longitude": "120.476150",
        "Latitude": "23.997436",
        "direct": "北向",
        "limit": "60"
      },
      {
        "CityName": "彰化縣",
        "RegionName": "埔心鄉",
        "Address": "埔心鄉員林大道(30米外環道)與員鹿路路口",
        "DeptNm": "彰化縣警察局",
        "BranchNm": "員林分局",
        "Longitude": "120.562217",
        "Latitude": "23.957081",
        "direct": "南向",
        "limit": "50"
      },
      {
        "CityName": "彰化縣",
        "RegionName": "永靖鄉",
        "Address": "永靖鄉中山路1段與中山路1段 351巷路口",
        "DeptNm": "彰化縣警察局",
        "BranchNm": "北斗分局",
        "Longitude": "120.546314",
        "Latitude": "23.922073",
        "direct": "南向",
        "limit": "70"
      },
      {
        "CityName": "彰化縣",
        "RegionName": "社頭鄉",
        "Address": "社頭鄉 中山路與和平三路口",
        "DeptNm": "彰化縣警察局",
        "BranchNm": "田中分局",
        "Longitude": "120.583772",
        "Latitude": "23.893861",
        "direct": "北向",
        "limit": "60"
      },
      {
        "CityName": "彰化縣",
        "RegionName": "社頭鄉",
        "Address": "縣141線6.6公里北上",
        "DeptNm": "彰化縣警察局",
        "BranchNm": "田中分局",
        "Longitude": "120.585000",
        "Latitude": "23.862780",
        "direct": "北向",
        "limit": "60"
      },
      {
        "CityName": "彰化縣",
        "RegionName": "二水鄉",
        "Address": "縣152線與二水鄉外環道(外環道路口)",
        "DeptNm": "彰化縣警察局",
        "BranchNm": "田中分局",
        "Longitude": "120.619720",
        "Latitude": "23.806110",
        "direct": "南向",
        "limit": "50"
      },
      {
        "CityName": "彰化縣",
        "RegionName": "二水鄉",
        "Address": "二水鄉縣141線21.594公里(二水鄉南通路二段398號對面)",
        "DeptNm": "彰化縣警察局",
        "BranchNm": "田中分局",
        "Longitude": "120.628014",
        "Latitude": "23.801483",
        "direct": "南向",
        "limit": "50"
      },
      {
        "CityName": "彰化縣",
        "RegionName": "二水鄉",
        "Address": "縣152線與二水鄉外環道(往名間方向)",
        "DeptNm": "彰化縣警察局",
        "BranchNm": "田中分局",
        "Longitude": "120.674440",
        "Latitude": "23.816940",
        "direct": "南向",
        "limit": "50"
      },
      {
        "CityName": "彰化縣",
        "RegionName": "北斗鎮",
        "Address": "斗苑路、斗苑二路307巷口",
        "DeptNm": "彰化縣警察局",
        "BranchNm": "北斗分局",
        "Longitude": "120.510235",
        "Latitude": "23.878146",
        "direct": "東向",
        "limit": "60"
      },
      {
        "CityName": "彰化縣",
        "RegionName": "北斗鎮",
        "Address": "北斗鎮中山路與斗苑路口",
        "DeptNm": "彰化縣警察局",
        "BranchNm": "北斗分局",
        "Longitude": "120.517192",
        "Latitude": "23.873513",
        "direct": "南向",
        "limit": "50"
      },
      {
        "CityName": "彰化縣",
        "RegionName": "田尾鄉",
        "Address": "台1線214.6公里南下",
        "DeptNm": "彰化縣警察局",
        "BranchNm": "北斗分局",
        "Longitude": "120.506390",
        "Latitude": "23.861670",
        "direct": "南向",
        "limit": "50"
      },
      {
        "CityName": "彰化縣",
        "RegionName": "田尾鄉",
        "Address": "台1線214公里北上",
        "DeptNm": "彰化縣警察局",
        "BranchNm": "北斗分局",
        "Longitude": "120.507220",
        "Latitude": "23.862500",
        "direct": "北向",
        "limit": "70"
      },
      {
        "CityName": "彰化縣",
        "RegionName": "埤頭鄉",
        "Address": "彰水路、庄子路口",
        "DeptNm": "彰化縣警察局",
        "BranchNm": "北斗分局",
        "Longitude": "120.460796",
        "Latitude": "23.894117",
        "direct": "北向",
        "limit": "70"
      },
      {
        "CityName": "彰化縣",
        "RegionName": "埤頭鄉",
        "Address": "台19線25.3公里北上東外環",
        "DeptNm": "彰化縣警察局",
        "BranchNm": "北斗分局",
        "Longitude": "120.469720",
        "Latitude": "23.898610",
        "direct": "北向",
        "limit": "70"
      },
      {
        "CityName": "彰化縣",
        "RegionName": "埤頭鄉",
        "Address": "埤頭鄉東環路與庄子路282巷路口",
        "DeptNm": "彰化縣警察局",
        "BranchNm": "田中分局",
        "Longitude": "120.476714",
        "Latitude": "23.896596",
        "direct": "南向",
        "limit": "70"
      },
      {
        "CityName": "彰化縣",
        "RegionName": "埤頭鄉",
        "Address": "埤頭鄉斗苑東路與中南路口",
        "DeptNm": "彰化縣警察局",
        "BranchNm": "北斗分局",
        "Longitude": "120.478231",
        "Latitude": "23.889475",
        "direct": "西向",
        "limit": "60"
      },
      {
        "CityName": "彰化縣",
        "RegionName": "芳苑鄉",
        "Address": "台17線與新上路口",
        "DeptNm": "彰化縣警察局",
        "BranchNm": "芳苑分局",
        "Longitude": "120.307500",
        "Latitude": "23.903330",
        "direct": "南向",
        "limit": "70"
      },
      {
        "CityName": "彰化縣",
        "RegionName": "芳苑鄉",
        "Address": "台17線59.3公里(芳苑鄉芳新路芳苑段801號)",
        "DeptNm": "彰化縣警察局",
        "BranchNm": "芳苑分局",
        "Longitude": "120.323610",
        "Latitude": "23.934170",
        "direct": "南北雙向",
        "limit": "70"
      },
      {
        "CityName": "彰化縣",
        "RegionName": "芳苑鄉",
        "Address": "台17線53.7公里",
        "DeptNm": "彰化縣警察局",
        "BranchNm": "芳苑分局",
        "Longitude": "120.334720",
        "Latitude": "23.952220",
        "direct": "南北雙向",
        "limit": "70"
      },
      {
        "CityName": "彰化縣",
        "RegionName": "芳苑鄉",
        "Address": "台17線、功湖路口",
        "DeptNm": "彰化縣警察局",
        "BranchNm": "芳苑分局",
        "Longitude": "120.346670",
        "Latitude": "23.964170",
        "direct": "北向",
        "limit": "70"
      },
      {
        "CityName": "彰化縣",
        "RegionName": "芳苑鄉",
        "Address": "台17線、中正路口",
        "DeptNm": "彰化縣警察局",
        "BranchNm": "芳苑分局",
        "Longitude": "120.352220",
        "Latitude": "23.975000",
        "direct": "北向",
        "limit": "70"
      },
      {
        "CityName": "彰化縣",
        "RegionName": "竹塘鄉",
        "Address": "竹塘鄉中央路二段大湖路口",
        "DeptNm": "彰化縣警察局",
        "BranchNm": "北斗分局",
        "Longitude": "120.426277",
        "Latitude": "23.862357",
        "direct": "南向",
        "limit": "70"
      },
      {
        "CityName": "彰化縣",
        "RegionName": "溪州鄉",
        "Address": "台1線219.7公里(溪洲外環道)",
        "DeptNm": "彰化縣警察局",
        "BranchNm": "北斗分局",
        "Longitude": "120.470280",
        "Latitude": "23.834440",
        "direct": "北向",
        "limit": "70"
      },
      {
        "CityName": "彰化縣",
        "RegionName": "溪州鄉",
        "Address": "台1線218.4公里處(溪州鄉中山路4段287號)",
        "DeptNm": "彰化縣警察局",
        "BranchNm": "北斗分局",
        "Longitude": "120.483112",
        "Latitude": "23.848319",
        "direct": "南北雙向",
        "limit": "70"
      },
      {
        "CityName": "南投縣",
        "RegionName": "南投市",
        "Address": "華陽路850號前",
        "DeptNm": "南投縣政府警察局",
        "BranchNm": "南投分局",
        "Longitude": "120.678246",
        "Latitude": "23.930109",
        "direct": "南北雙向",
        "limit": "60"
      },
      {
        "CityName": "南投縣",
        "RegionName": "南投市",
        "Address": "東閔路1.35公里",
        "DeptNm": "南投縣政府警察局",
        "BranchNm": "中興分局",
        "Longitude": "120.686228",
        "Latitude": "23.936150",
        "direct": "北向南",
        "limit": "60"
      },
      {
        "CityName": "南投縣",
        "RegionName": "南投市",
        "Address": "台3線215.5公里",
        "DeptNm": "南投縣政府警察局",
        "BranchNm": "南投分局",
        "Longitude": "120.689876",
        "Latitude": "23.888296",
        "direct": "南北雙向",
        "limit": "60"
      },
      {
        "CityName": "南投縣",
        "RegionName": "埔里鎮",
        "Address": "台21線50.8公里",
        "DeptNm": "南投縣政府警察局",
        "BranchNm": "埔里分局",
        "Longitude": "120.931840",
        "Latitude": "23.944330",
        "direct": "北向南",
        "limit": "60"
      },
      {
        "CityName": "南投縣",
        "RegionName": "埔里鎮",
        "Address": "台21線49.9公里",
        "DeptNm": "南投縣政府警察局",
        "BranchNm": "埔里分局",
        "Longitude": "120.937636",
        "Latitude": "23.948852",
        "direct": "南向北",
        "limit": "60"
      },
      {
        "CityName": "南投縣",
        "RegionName": "草屯鎮",
        "Address": "台14乙線5.9公里",
        "DeptNm": "南投縣政府警察局",
        "BranchNm": "草屯分局",
        "Longitude": "120.655079",
        "Latitude": "23.963616",
        "direct": "南北雙向",
        "limit": "70"
      },
      {
        "CityName": "南投縣",
        "RegionName": "草屯鎮",
        "Address": "台63甲線0.3公里闖紅燈",
        "DeptNm": "南投縣政府警察局",
        "BranchNm": "草屯分局",
        "Longitude": "120.677848",
        "Latitude": "24.002890",
        "direct": "南向北",
        "limit": "60"
      },
      {
        "CityName": "南投縣",
        "RegionName": "草屯鎮",
        "Address": "台63甲線1.2公里",
        "DeptNm": "南投縣政府警察局",
        "BranchNm": "草屯分局",
        "Longitude": "120.679626",
        "Latitude": "23.996204",
        "direct": "南北雙向",
        "limit": "60"
      },
      {
        "CityName": "南投縣",
        "RegionName": "草屯鎮",
        "Address": "台14線富功國小前",
        "DeptNm": "南投縣政府警察局",
        "BranchNm": "草屯分局",
        "Longitude": "120.698436",
        "Latitude": "23.978879",
        "direct": "東向西",
        "limit": "50"
      },
      {
        "CityName": "南投縣",
        "RegionName": "草屯鎮",
        "Address": "東草屯交流道永安路1.8公里",
        "DeptNm": "南投縣政府警察局",
        "BranchNm": "草屯分局",
        "Longitude": "120.722468",
        "Latitude": "23.996404",
        "direct": "南北雙向",
        "limit": "50"
      },
      {
        "CityName": "南投縣",
        "RegionName": "竹山鎮",
        "Address": "大明路與前山路口闖紅燈",
        "DeptNm": "南投縣政府警察局",
        "BranchNm": "竹山分局",
        "Longitude": "120.679295",
        "Latitude": "23.757366",
        "direct": "南向北",
        "limit": "60"
      },
      {
        "CityName": "南投縣",
        "RegionName": "竹山鎮",
        "Address": "社寮產業運輸道路2.15公里處",
        "DeptNm": "南投縣政府警察局",
        "BranchNm": "竹山分局",
        "Longitude": "120.705372",
        "Latitude": "23.808374",
        "direct": "南北雙向",
        "limit": "40"
      },
      {
        "CityName": "南投縣",
        "RegionName": "竹山鎮",
        "Address": "台3線227.7公里",
        "DeptNm": "南投縣政府警察局",
        "BranchNm": "竹山分局",
        "Longitude": "120.709379",
        "Latitude": "23.789067",
        "direct": "南北雙向",
        "limit": "60"
      },
      {
        "CityName": "南投縣",
        "RegionName": "竹山鎮",
        "Address": "社寮產業運輸道路4.5公里處",
        "DeptNm": "南投縣政府警察局",
        "BranchNm": "竹山分局",
        "Longitude": "120.721655",
        "Latitude": "23.823490",
        "direct": "南北雙向",
        "limit": "40"
      },
      {
        "CityName": "南投縣",
        "RegionName": "集集鎮",
        "Address": "台16線2.37公里",
        "DeptNm": "南投縣政府警察局",
        "BranchNm": "集集分局",
        "Longitude": "120.730961",
        "Latitude": "23.834897",
        "direct": "東西雙向",
        "limit": "70"
      },
      {
        "CityName": "南投縣",
        "RegionName": "集集鎮",
        "Address": "台16線4.8公里闖紅燈及測速",
        "DeptNm": "南投縣政府警察局",
        "BranchNm": "集集分局",
        "Longitude": "120.752475",
        "Latitude": "23.828298",
        "direct": "東向西",
        "limit": "70"
      },
      {
        "CityName": "雲林縣",
        "RegionName": "斗六市",
        "Address": "台1丁線公路與久安路口",
        "DeptNm": "雲林縣警察局",
        "BranchNm": "斗六分局",
        "Longitude": "120.508235",
        "Latitude": "23.691449",
        "direct": "東西雙向",
        "limit": "70"
      },
      {
        "CityName": "雲林縣",
        "RegionName": "斗六市",
        "Address": "大學路與雲林科技大學前路口",
        "DeptNm": "雲林縣警察局",
        "BranchNm": "斗六分局",
        "Longitude": "120.533080",
        "Latitude": "23.695943",
        "direct": "西向東",
        "limit": "60"
      },
      {
        "CityName": "雲林縣",
        "RegionName": "斗六市",
        "Address": "台3線公路252k+65m處",
        "DeptNm": "雲林縣警察局",
        "BranchNm": "斗六分局",
        "Longitude": "120.546494",
        "Latitude": "23.699762",
        "direct": "南向北",
        "limit": "60"
      },
      {
        "CityName": "雲林縣",
        "RegionName": "斗六市",
        "Address": "154乙縣道13k+200m處(環科大前)",
        "DeptNm": "雲林縣警察局",
        "BranchNm": "斗六分局",
        "Longitude": "120.552562",
        "Latitude": "23.680203",
        "direct": "南北雙向",
        "limit": "60"
      },
      {
        "CityName": "雲林縣",
        "RegionName": "斗六市",
        "Address": "斗六市台3線公路與成功路口",
        "DeptNm": "雲林縣警察局",
        "BranchNm": "斗六分局",
        "Longitude": "120.553460",
        "Latitude": "23.702804",
        "direct": "南向北",
        "limit": "70"
      },
      {
        "CityName": "雲林縣",
        "RegionName": "斗六市",
        "Address": "台3線公路248k+970m處",
        "DeptNm": "雲林縣警察局",
        "BranchNm": "斗六分局",
        "Longitude": "120.568955",
        "Latitude": "23.717223",
        "direct": "南向北",
        "limit": "60"
      },
      {
        "CityName": "雲林縣",
        "RegionName": "斗南鎮",
        "Address": "台78線快速公路29k+400m處(西向東)",
        "DeptNm": "雲林縣警察局",
        "BranchNm": "斗南分局",
        "Longitude": "120.451889",
        "Latitude": "23.673025",
        "direct": "西向東",
        "limit": "100"
      },
      {
        "CityName": "雲林縣",
        "RegionName": "斗南鎮",
        "Address": "台78線快速公路29k+400m處(東向西)",
        "DeptNm": "雲林縣警察局",
        "BranchNm": "斗南分局",
        "Longitude": "120.451929",
        "Latitude": "23.673211",
        "direct": "東向西",
        "limit": "100"
      },
      {
        "CityName": "雲林縣",
        "RegionName": "斗南鎮",
        "Address": "台1線公路與文昌路口(南向北)",
        "DeptNm": "雲林縣警察局",
        "BranchNm": "斗南分局",
        "Longitude": "120.480838",
        "Latitude": "23.679547",
        "direct": "南向北",
        "limit": "60"
      },
      {
        "CityName": "雲林縣",
        "RegionName": "斗南鎮",
        "Address": "台1線公路與文昌路口(北向南)",
        "DeptNm": "雲林縣警察局",
        "BranchNm": "斗南分局",
        "Longitude": "120.480858",
        "Latitude": "23.680340",
        "direct": "北向南",
        "limit": "60"
      },
      {
        "CityName": "雲林縣",
        "RegionName": "斗南鎮",
        "Address": "台1丁線公路12k+800m處(新光陸橋)",
        "DeptNm": "雲林縣警察局",
        "BranchNm": "斗南分局",
        "Longitude": "120.492336",
        "Latitude": "23.683597",
        "direct": "東西雙向",
        "limit": "60"
      },
      {
        "CityName": "雲林縣",
        "RegionName": "虎尾鎮",
        "Address": "科虎三路18號(元翎科技公司)",
        "DeptNm": "保二總隊",
        "BranchNm": "保二三大隊",
        "Longitude": "120.396006",
        "Latitude": "23.736464",
        "direct": "北往南",
        "limit": "60"
      },
      {
        "CityName": "雲林縣",
        "RegionName": "虎尾鎮",
        "Address": "158縣道與博愛路口",
        "DeptNm": "雲林縣警察局",
        "BranchNm": "虎尾分局",
        "Longitude": "120.436048",
        "Latitude": "23.719143",
        "direct": "西向東",
        "limit": "60"
      },
      {
        "CityName": "雲林縣",
        "RegionName": "虎尾鎮",
        "Address": "158縣道與林森路一段路口",
        "DeptNm": "雲林縣警察局",
        "BranchNm": "虎尾分局",
        "Longitude": "120.441329",
        "Latitude": "23.717179",
        "direct": "東向西",
        "limit": "60"
      },
      {
        "CityName": "雲林縣",
        "RegionName": "虎尾鎮",
        "Address": "145乙縣道與雲71線路口前(東向西)",
        "DeptNm": "雲林縣警察局",
        "BranchNm": "虎尾分局",
        "Longitude": "120.458277",
        "Latitude": "23.735708",
        "direct": "東向西",
        "limit": "60"
      },
      {
        "CityName": "雲林縣",
        "RegionName": "虎尾鎮",
        "Address": "台1線公路與雲74線路口(惠來派出所前)",
        "DeptNm": "雲林縣警察局",
        "BranchNm": "虎尾分局",
        "Longitude": "120.488912",
        "Latitude": "23.728313",
        "direct": "南北雙向",
        "limit": "70"
      },
      {
        "CityName": "雲林縣",
        "RegionName": "西螺鎮",
        "Address": "154甲縣道1k處(高鐵橋下)",
        "DeptNm": "雲林縣警察局",
        "BranchNm": "西螺分局",
        "Longitude": "120.430224",
        "Latitude": "23.785646",
        "direct": "東西雙向",
        "limit": "60"
      },
      {
        "CityName": "雲林縣",
        "RegionName": "西螺鎮",
        "Address": "145縣道與福來路20巷路口(12.6k處-北向)",
        "DeptNm": "雲林縣警察局",
        "BranchNm": "西螺分局",
        "Longitude": "120.445057",
        "Latitude": "23.778845",
        "direct": "南向北",
        "limit": "60"
      },
      {
        "CityName": "雲林縣",
        "RegionName": "西螺鎮",
        "Address": "台1線公路與振興路口(北向南)",
        "DeptNm": "雲林縣警察局",
        "BranchNm": "西螺分局",
        "Longitude": "120.470463",
        "Latitude": "23.790655",
        "direct": "北向南",
        "limit": "50"
      },
      {
        "CityName": "雲林縣",
        "RegionName": "西螺鎮",
        "Address": "台1線公路與振興路口(南向北)",
        "DeptNm": "雲林縣警察局",
        "BranchNm": "西螺分局",
        "Longitude": "120.470754",
        "Latitude": "23.790069",
        "direct": "南向北",
        "limit": "50"
      },
      {
        "CityName": "雲林縣",
        "RegionName": "土庫鎮",
        "Address": "158縣道18k處",
        "DeptNm": "雲林縣警察局",
        "BranchNm": "虎尾分局",
        "Longitude": "120.352211",
        "Latitude": "23.701073",
        "direct": "西向東",
        "limit": "70"
      },
      {
        "CityName": "雲林縣",
        "RegionName": "土庫鎮",
        "Address": "145縣道29k處(土庫外環道)",
        "DeptNm": "雲林縣警察局",
        "BranchNm": "虎尾分局",
        "Longitude": "120.388552",
        "Latitude": "23.670492",
        "direct": "南北雙向",
        "limit": "60"
      },
      {
        "CityName": "雲林縣",
        "RegionName": "北港鎮",
        "Address": "164縣道14k+800m處(扶朝段)",
        "DeptNm": "雲林縣警察局",
        "BranchNm": "北港分局",
        "Longitude": "120.282401",
        "Latitude": "23.567465",
        "direct": "東向西",
        "limit": "60"
      },
      {
        "CityName": "雲林縣",
        "RegionName": "北港鎮",
        "Address": "台19線公路與145線道路口",
        "DeptNm": "雲林縣警察局",
        "BranchNm": "北港分局",
        "Longitude": "120.299399",
        "Latitude": "23.583764",
        "direct": "北向南",
        "limit": "60"
      },
      {
        "CityName": "雲林縣",
        "RegionName": "大埤鄉",
        "Address": "台1線公路247k+500m處(豐田段)",
        "DeptNm": "雲林縣警察局",
        "BranchNm": "斗南分局",
        "Longitude": "120.468266",
        "Latitude": "23.633721",
        "direct": "南向北",
        "limit": "70"
      },
      {
        "CityName": "雲林縣",
        "RegionName": "大埤鄉",
        "Address": "台1線公路246k+400m處(豐田段)",
        "DeptNm": "雲林縣警察局",
        "BranchNm": "斗南分局",
        "Longitude": "120.469456",
        "Latitude": "23.639185",
        "direct": "北向南",
        "limit": "70"
      },
      {
        "CityName": "雲林縣",
        "RegionName": "莿桐鄉",
        "Address": "台1線公路235k+592m處",
        "DeptNm": "雲林縣警察局",
        "BranchNm": "斗六分局",
        "Longitude": "120.494443",
        "Latitude": "23.742592",
        "direct": "南北雙向",
        "limit": "60"
      },
      {
        "CityName": "雲林縣",
        "RegionName": "莿桐鄉",
        "Address": "台1線公路與中正路口",
        "DeptNm": "雲林縣警察局",
        "BranchNm": "斗六分局",
        "Longitude": "120.496770",
        "Latitude": "23.757749",
        "direct": "北向南",
        "limit": "70"
      },
      {
        "CityName": "雲林縣",
        "RegionName": "莿桐鄉",
        "Address": "156縣道與莿桐外環道(孩沙里)路口",
        "DeptNm": "雲林縣警察局",
        "BranchNm": "斗六分局",
        "Longitude": "120.506427",
        "Latitude": "23.766708",
        "direct": "北向南",
        "limit": "60"
      },
      {
        "CityName": "雲林縣",
        "RegionName": "莿桐鄉",
        "Address": "台1丁線公路與農校路口",
        "DeptNm": "雲林縣警察局",
        "BranchNm": "斗六分局",
        "Longitude": "120.508674",
        "Latitude": "23.750402",
        "direct": "北向南",
        "limit": "60"
      },
      {
        "CityName": "雲林縣",
        "RegionName": "林內鄉",
        "Address": "台3線公路238k+268m處",
        "DeptNm": "雲林縣警察局",
        "BranchNm": "斗六分局",
        "Longitude": "120.643998",
        "Latitude": "23.770504",
        "direct": "南向北",
        "limit": "60"
      },
      {
        "CityName": "雲林縣",
        "RegionName": "麥寮鄉",
        "Address": "雲3線海豐村忠和路131號前",
        "DeptNm": "雲林縣警察局",
        "BranchNm": "臺西分局",
        "Longitude": "120.228941",
        "Latitude": "23.773760",
        "direct": "南北雙向",
        "limit": "60"
      },
      {
        "CityName": "雲林縣",
        "RegionName": "麥寮鄉",
        "Address": "工業路與雲3號路口(西向東)",
        "DeptNm": "雲林縣警察局",
        "BranchNm": "臺西分局",
        "Longitude": "120.234594",
        "Latitude": "23.792047",
        "direct": "西向東",
        "limit": "60"
      },
      {
        "CityName": "雲林縣",
        "RegionName": "麥寮鄉",
        "Address": "工業路與4k+500m處路口",
        "DeptNm": "雲林縣警察局",
        "BranchNm": "臺西分局",
        "Longitude": "120.236775",
        "Latitude": "23.791571",
        "direct": "西向東",
        "limit": "70"
      },
      {
        "CityName": "雲林縣",
        "RegionName": "麥寮鄉",
        "Address": "工業路與雲3號路口(東向西)",
        "DeptNm": "雲林縣警察局",
        "BranchNm": "臺西分局",
        "Longitude": "120.239156",
        "Latitude": "23.791637",
        "direct": "東向西",
        "limit": "60"
      },
      {
        "CityName": "雲林縣",
        "RegionName": "麥寮鄉",
        "Address": "台17線公路與工業路口",
        "DeptNm": "雲林縣警察局",
        "BranchNm": "臺西分局",
        "Longitude": "120.271001",
        "Latitude": "23.788768",
        "direct": "南向北",
        "limit": "60"
      },
      {
        "CityName": "雲林縣",
        "RegionName": "麥寮鄉",
        "Address": "台17線公路與154縣道路口(橋頭)",
        "DeptNm": "雲林縣警察局",
        "BranchNm": "臺西分局",
        "Longitude": "120.278654",
        "Latitude": "23.796334",
        "direct": "北向南",
        "limit": "60"
      },
      {
        "CityName": "雲林縣",
        "RegionName": "東勢鄉",
        "Address": "雲113公路湖東橋前路段",
        "DeptNm": "雲林縣警察局",
        "BranchNm": "臺西分局",
        "Longitude": "120.240659",
        "Latitude": "23.655548",
        "direct": "東向西",
        "limit": "60"
      },
      {
        "CityName": "雲林縣",
        "RegionName": "東勢鄉",
        "Address": "新坤路與158甲縣道路口",
        "DeptNm": "雲林縣警察局",
        "BranchNm": "臺西分局",
        "Longitude": "120.253293",
        "Latitude": "23.721405",
        "direct": "北向南",
        "limit": "60"
      },
      {
        "CityName": "雲林縣",
        "RegionName": "東勢鄉",
        "Address": "153縣道1k處",
        "DeptNm": "雲林縣警察局",
        "BranchNm": "臺西分局",
        "Longitude": "120.255278",
        "Latitude": "23.738637",
        "direct": "北向南",
        "limit": "60"
      },
      {
        "CityName": "雲林縣",
        "RegionName": "東勢鄉",
        "Address": "153線與158甲線縣道路口",
        "DeptNm": "雲林縣警察局",
        "BranchNm": "臺西分局",
        "Longitude": "120.256620",
        "Latitude": "23.720883",
        "direct": "南向北",
        "limit": "60"
      },
      {
        "CityName": "雲林縣",
        "RegionName": "東勢鄉",
        "Address": "153縣道嘉勝路與守密街路口(南向)",
        "DeptNm": "雲林縣警察局",
        "BranchNm": "臺西分局",
        "Longitude": "120.259013",
        "Latitude": "23.665485",
        "direct": "北向南",
        "limit": "50"
      },
      {
        "CityName": "雲林縣",
        "RegionName": "東勢鄉",
        "Address": "台78線快速公路13k處(西向東)",
        "DeptNm": "雲林縣警察局",
        "BranchNm": "臺西分局",
        "Longitude": "120.300669",
        "Latitude": "23.684863",
        "direct": "西向東",
        "limit": "100"
      },
      {
        "CityName": "雲林縣",
        "RegionName": "東勢鄉",
        "Address": "台78線快速公路13k處(東向西)",
        "DeptNm": "雲林縣警察局",
        "BranchNm": "臺西分局",
        "Longitude": "120.306603",
        "Latitude": "23.685008",
        "direct": "東向西",
        "limit": "100"
      },
      {
        "CityName": "雲林縣",
        "RegionName": "褒忠鄉",
        "Address": "台19線公路與158縣道路口",
        "DeptNm": "雲林縣警察局",
        "BranchNm": "虎尾分局",
        "Longitude": "120.324073",
        "Latitude": "23.698270",
        "direct": "北向南",
        "limit": "70"
      },
      {
        "CityName": "雲林縣",
        "RegionName": "褒忠鄉",
        "Address": "台19線公路53k+500m處",
        "DeptNm": "雲林縣警察局",
        "BranchNm": "虎尾分局",
        "Longitude": "120.324422",
        "Latitude": "23.708207",
        "direct": "南北雙向",
        "limit": "70"
      },
      {
        "CityName": "雲林縣",
        "RegionName": "臺西鄉",
        "Address": "155縣道民權路47-8號前",
        "DeptNm": "雲林縣警察局",
        "BranchNm": "臺西分局",
        "Longitude": "120.200159",
        "Latitude": "23.703784",
        "direct": "北向南",
        "limit": "50"
      },
      {
        "CityName": "雲林縣",
        "RegionName": "臺西鄉",
        "Address": "155縣道4k+800m處",
        "DeptNm": "雲林縣警察局",
        "BranchNm": "臺西分局",
        "Longitude": "120.208820",
        "Latitude": "23.669996",
        "direct": "南北雙向",
        "limit": "60"
      },
      {
        "CityName": "雲林縣",
        "RegionName": "元長鄉",
        "Address": "160縣道20k+947m處(子茂段)",
        "DeptNm": "雲林縣警察局",
        "BranchNm": "虎尾分局",
        "Longitude": "120.337101",
        "Latitude": "23.658633",
        "direct": "東西雙向",
        "limit": "60"
      },
      {
        "CityName": "雲林縣",
        "RegionName": "四湖鄉",
        "Address": "155線四湖國中前",
        "DeptNm": "雲林縣警察局",
        "BranchNm": "臺西分局",
        "Longitude": "120.227541",
        "Latitude": "23.630302",
        "direct": "北向南",
        "limit": "60"
      },
      {
        "CityName": "雲林縣",
        "RegionName": "口湖鄉",
        "Address": "台17線公路97k+842m處",
        "DeptNm": "雲林縣警察局",
        "BranchNm": "北港分局",
        "Longitude": "120.166895",
        "Latitude": "23.623926",
        "direct": "南北雙向",
        "limit": "70"
      },
      {
        "CityName": "嘉義縣",
        "RegionName": "太保市",
        "Address": "台18線1.5K(後庄段)",
        "DeptNm": "嘉義縣警察局",
        "BranchNm": "水上分局",
        "Longitude": "120.328725",
        "Latitude": "23.472518",
        "direct": "由東向西",
        "limit": "70"
      },
      {
        "CityName": "嘉義縣",
        "RegionName": "民雄鄉",
        "Address": "台1線255.5K(鎮北段)",
        "DeptNm": "嘉義縣警察局",
        "BranchNm": "民雄分局",
        "Longitude": "120.439569",
        "Latitude": "23.578737",
        "direct": "南北雙向",
        "limit": "70"
      },
      {
        "CityName": "嘉義縣",
        "RegionName": "新港鄉",
        "Address": "159線南壇段水月橋",
        "DeptNm": "嘉義縣警察局",
        "BranchNm": "民雄分局",
        "Longitude": "120.324978",
        "Latitude": "23.560233",
        "direct": "由東向西",
        "limit": "60"
      },
      {
        "CityName": "嘉義縣",
        "RegionName": "六腳鄉",
        "Address": "台19線73.1K(六美國小)",
        "DeptNm": "嘉義縣警察局",
        "BranchNm": "朴子分局",
        "Longitude": "120.292695",
        "Latitude": "23.539839",
        "direct": "由南向北",
        "limit": "50"
      },
      {
        "CityName": "嘉義縣",
        "RegionName": "東石鄉",
        "Address": "台82線4.65K",
        "DeptNm": "嘉義縣警察局",
        "BranchNm": "朴子分局",
        "Longitude": "120.190986",
        "Latitude": "23.456659",
        "direct": "雙向",
        "limit": "70"
      },
      {
        "CityName": "嘉義縣",
        "RegionName": "梅山鄉",
        "Address": "台3線272.2K(大南國小)",
        "DeptNm": "嘉義縣警察局",
        "BranchNm": "竹崎分局",
        "Longitude": "120.553921",
        "Latitude": "23.558527",
        "direct": "由北向南",
        "limit": "60"
      },
      {
        "CityName": "屏東縣",
        "RegionName": "屏東市",
        "Address": "環河路段南北雙向",
        "DeptNm": "屏東縣政府警察局",
        "BranchNm": "屏東分局",
        "Longitude": "120.447912",
        "Latitude": "22.673306",
        "direct": "南北雙向",
        "limit": "60"
      },
      {
        "CityName": "屏東縣",
        "RegionName": "屏東市",
        "Address": "189線10.1K大溪路口南下",
        "DeptNm": "屏東縣政府警察局",
        "BranchNm": "屏東分局",
        "Longitude": "120.453909",
        "Latitude": "22.639193",
        "direct": "北向南",
        "limit": "70"
      },
      {
        "CityName": "屏東縣",
        "RegionName": "屏東市",
        "Address": "高屏大橋屏東端南北雙向",
        "DeptNm": "屏東縣政府警察局",
        "BranchNm": "屏東分局",
        "Longitude": "120.454876",
        "Latitude": "22.652135",
        "direct": "南北雙向",
        "limit": "70"
      },
      {
        "CityName": "屏東縣",
        "RegionName": "屏東市",
        "Address": "台27線62.1K公館外環道南北雙向",
        "DeptNm": "屏東縣政府警察局",
        "BranchNm": "屏東分局",
        "Longitude": "120.482121",
        "Latitude": "22.619042",
        "direct": "南北雙向",
        "limit": "60"
      },
      {
        "CityName": "屏東縣",
        "RegionName": "屏東市",
        "Address": "台27線59.73K復興南路與公成路南北雙向",
        "DeptNm": "屏東縣政府警察局",
        "BranchNm": "屏東分局",
        "Longitude": "120.485576",
        "Latitude": "22.640204",
        "direct": "南北雙向",
        "limit": "70"
      },
      {
        "CityName": "屏東縣",
        "RegionName": "屏東市",
        "Address": "屏東市和生路一段與工業六路口南下",
        "DeptNm": "屏東縣政府警察局",
        "BranchNm": "屏東分局",
        "Longitude": "120.497735",
        "Latitude": "22.654817",
        "direct": "北向南",
        "limit": "60"
      },
      {
        "CityName": "屏東縣",
        "RegionName": "屏東市",
        "Address": "台3線428.8K海豐果菜市場附近南北雙向",
        "DeptNm": "屏東縣政府警察局",
        "BranchNm": "屏東分局",
        "Longitude": "120.499941",
        "Latitude": "22.704839",
        "direct": "南北雙向",
        "limit": "70"
      },
      {
        "CityName": "屏東縣",
        "RegionName": "屏東市",
        "Address": "屏東市和生路與民生東路口南下",
        "DeptNm": "屏東縣政府警察局",
        "BranchNm": "屏東分局",
        "Longitude": "120.510921",
        "Latitude": "22.659873",
        "direct": "北向南",
        "limit": "60"
      },
      {
        "CityName": "屏東縣",
        "RegionName": "潮州鎮",
        "Address": "台一線417.5K潮州段南北雙向",
        "DeptNm": "屏東縣政府警察局",
        "BranchNm": "潮州分局",
        "Longitude": "120.540442",
        "Latitude": "22.536631",
        "direct": "南北雙向",
        "limit": "70"
      },
      {
        "CityName": "屏東縣",
        "RegionName": "潮州鎮",
        "Address": "屏85線與屏83線路口南下",
        "DeptNm": "屏東縣政府警察局",
        "BranchNm": "潮州分局",
        "Longitude": "120.540819",
        "Latitude": "22.569650",
        "direct": "北向南",
        "limit": "60"
      },
      {
        "CityName": "屏東縣",
        "RegionName": "潮州鎮",
        "Address": "台一線415K南北雙向",
        "DeptNm": "屏東縣政府警察局",
        "BranchNm": "潮州分局",
        "Longitude": "120.555830",
        "Latitude": "22.551670",
        "direct": "南北雙向",
        "limit": "70"
      },
      {
        "CityName": "屏東縣",
        "RegionName": "東港鎮",
        "Address": "大鵬灣環灣道路3K南北雙向處",
        "DeptNm": "屏東縣政府警察局",
        "BranchNm": "東港分局",
        "Longitude": "120.470295",
        "Latitude": "22.440039",
        "direct": "南北雙向處",
        "limit": "40"
      },
      {
        "CityName": "屏東縣",
        "RegionName": "東港鎮",
        "Address": "中正路三段與新厝路",
        "DeptNm": "屏東縣政府警察局",
        "BranchNm": "東港分局",
        "Longitude": "120.478874",
        "Latitude": "22.491724",
        "direct": "東向西",
        "limit": "60"
      },
      {
        "CityName": "屏東縣",
        "RegionName": "東港鎮",
        "Address": "台17線258.5K東港大鵬灣段南北雙向",
        "DeptNm": "屏東縣政府警察局",
        "BranchNm": "東港分局",
        "Longitude": "120.481929",
        "Latitude": "22.456896",
        "direct": "南北雙向",
        "limit": "70"
      },
      {
        "CityName": "屏東縣",
        "RegionName": "東港鎮",
        "Address": "大鵬灣環灣道路12K處南北雙向",
        "DeptNm": "屏東縣政府警察局",
        "BranchNm": "東港分局",
        "Longitude": "120.493509",
        "Latitude": "22.441695",
        "direct": "南北雙向",
        "limit": "40"
      },
      {
        "CityName": "屏東縣",
        "RegionName": "恆春鎮",
        "Address": "台26線20K省北路二段南北雙向",
        "DeptNm": "屏東縣政府警察局",
        "BranchNm": "恆春分局",
        "Longitude": "120.730103",
        "Latitude": "22.045581",
        "direct": "南北雙向",
        "limit": "70"
      },
      {
        "CityName": "屏東縣",
        "RegionName": "恆春鎮",
        "Address": "台26線22.9K南北雙向",
        "DeptNm": "屏東縣政府警察局",
        "BranchNm": "恆春分局",
        "Longitude": "120.743069",
        "Latitude": "22.024392",
        "direct": "北向南",
        "limit": "60"
      },
      {
        "CityName": "屏東縣",
        "RegionName": "恆春鎮",
        "Address": "台26線28.8公里處南北雙向",
        "DeptNm": "屏東縣政府警察局",
        "BranchNm": "恆春分局",
        "Longitude": "120.752989",
        "Latitude": "21.977370",
        "direct": "南北雙向",
        "limit": "70"
      },
      {
        "CityName": "屏東縣",
        "RegionName": "恆春鎮",
        "Address": "台26線28K核三廠前北上",
        "DeptNm": "屏東縣政府警察局",
        "BranchNm": "恆春分局",
        "Longitude": "120.758597",
        "Latitude": "21.965241",
        "direct": "南向北",
        "limit": "70"
      },
      {
        "CityName": "屏東縣",
        "RegionName": "萬丹鄉",
        "Address": "萬丹鄉188線16.65K萬順路一段東西雙向",
        "DeptNm": "屏東縣政府警察局",
        "BranchNm": "屏東分局",
        "Longitude": "120.483118",
        "Latitude": "22.568168",
        "direct": "東西雙向",
        "limit": "50"
      },
      {
        "CityName": "屏東縣",
        "RegionName": "萬丹鄉",
        "Address": "萬丹鄉西環路與和平西路口",
        "DeptNm": "屏東縣政府警察局",
        "BranchNm": "屏東分局",
        "Longitude": "120.487157",
        "Latitude": "22.589526",
        "direct": "北向南",
        "limit": "50"
      },
      {
        "CityName": "屏東縣",
        "RegionName": "萬丹鄉",
        "Address": "台27線65.6K丹榮路段南北雙向",
        "DeptNm": "屏東縣政府警察局",
        "BranchNm": "屏東分局",
        "Longitude": "120.492343",
        "Latitude": "22.589718",
        "direct": "南北雙向",
        "limit": "70"
      },
      {
        "CityName": "屏東縣",
        "RegionName": "萬丹鄉",
        "Address": "萬丹鄉187甲線14.67K大學路段南北雙向",
        "DeptNm": "屏東縣政府警察局",
        "BranchNm": "屏東分局",
        "Longitude": "120.498760",
        "Latitude": "22.591784",
        "direct": "南北雙向",
        "limit": "50"
      },
      {
        "CityName": "屏東縣",
        "RegionName": "長治鄉",
        "Address": "屏21線神農西路段南北雙向",
        "DeptNm": "屏東縣政府警察局",
        "BranchNm": "屏東分局",
        "Longitude": "120.533573",
        "Latitude": "22.712818",
        "direct": "南北雙向",
        "limit": "50"
      },
      {
        "CityName": "屏東縣",
        "RegionName": "長治鄉",
        "Address": "屏21線農科路與神農西路口",
        "DeptNm": "屏東縣政府警察局",
        "BranchNm": "屏東分局",
        "Longitude": "120.533759",
        "Latitude": "22.713966",
        "direct": "北向南",
        "limit": "60"
      },
      {
        "CityName": "屏東縣",
        "RegionName": "長治鄉",
        "Address": "屏26線神農德華路口東西雙向",
        "DeptNm": "屏東縣政府警察局",
        "BranchNm": "屏東分局",
        "Longitude": "120.539034",
        "Latitude": "22.716287",
        "direct": "東西雙向",
        "limit": "50"
      },
      {
        "CityName": "屏東縣",
        "RegionName": "長治鄉",
        "Address": "台24線7.98K長治鄉中興路段東西雙向",
        "DeptNm": "屏東縣政府警察局",
        "BranchNm": "屏東分局",
        "Longitude": "120.542672",
        "Latitude": "22.693243",
        "direct": "東西雙向",
        "limit": "60"
      },
      {
        "CityName": "屏東縣",
        "RegionName": "九如鄉",
        "Address": "台3線427.4K九如機場西側外環道南下",
        "DeptNm": "屏東縣政府警察局",
        "BranchNm": "里港分局",
        "Longitude": "120.488129",
        "Latitude": "22.710312",
        "direct": "北向南",
        "limit": "50"
      },
      {
        "CityName": "屏東縣",
        "RegionName": "九如鄉",
        "Address": "台3線426.3K九如玉水路段南北雙向",
        "DeptNm": "屏東縣政府警察局",
        "BranchNm": "里港分局",
        "Longitude": "120.488430",
        "Latitude": "22.717932",
        "direct": "南北雙向",
        "limit": "70"
      },
      {
        "CityName": "屏東縣",
        "RegionName": "九如鄉",
        "Address": "台三線423.66K九如林森路口南下",
        "DeptNm": "屏東縣政府警察局",
        "BranchNm": "里港分局",
        "Longitude": "120.489534",
        "Latitude": "22.736686",
        "direct": "北向南",
        "limit": "50"
      },
      {
        "CityName": "屏東縣",
        "RegionName": "里港鄉",
        "Address": "台3線里港鄉420.5K處南北雙向",
        "DeptNm": "屏東縣政府警察局",
        "BranchNm": "里港分局",
        "Longitude": "120.493750",
        "Latitude": "22.769914",
        "direct": "南北雙向",
        "limit": "50"
      },
      {
        "CityName": "屏東縣",
        "RegionName": "里港鄉",
        "Address": "里港鄉台3線418.9K鐵店路口南下",
        "DeptNm": "屏東縣政府警察局",
        "BranchNm": "里港分局",
        "Longitude": "120.498051",
        "Latitude": "22.778225",
        "direct": "北向南",
        "limit": "50"
      },
      {
        "CityName": "屏東縣",
        "RegionName": "里港鄉",
        "Address": "里港鄉台3線415.7K北向",
        "DeptNm": "屏東縣政府警察局",
        "BranchNm": "里港分局",
        "Longitude": "120.501318",
        "Latitude": "22.803162",
        "direct": "南往北",
        "limit": "50"
      },
      {
        "CityName": "屏東縣",
        "RegionName": "里港鄉",
        "Address": "里港鄉台3線415.7K南向",
        "DeptNm": "屏東縣政府警察局",
        "BranchNm": "里港分局",
        "Longitude": "120.501318",
        "Latitude": "22.803162",
        "direct": "北往南",
        "limit": "60"
      },
      {
        "CityName": "屏東縣",
        "RegionName": "里港鄉",
        "Address": "台3線414.7K土庫段南北雙向",
        "DeptNm": "屏東縣政府警察局",
        "BranchNm": "里港分局",
        "Longitude": "120.506743",
        "Latitude": "22.816883",
        "direct": "南北雙向",
        "limit": "50"
      },
      {
        "CityName": "屏東縣",
        "RegionName": "鹽埔鄉",
        "Address": "台27線45K鹽埔彭厝路段南北雙向",
        "DeptNm": "屏東縣政府警察局",
        "BranchNm": "里港分局",
        "Longitude": "120.554487",
        "Latitude": "22.749349",
        "direct": "南北雙向",
        "limit": "60"
      },
      {
        "CityName": "屏東縣",
        "RegionName": "鹽埔鄉",
        "Address": "台24線14.87K東西雙向",
        "DeptNm": "屏東縣政府警察局",
        "BranchNm": "屏東分局",
        "Longitude": "120.599170",
        "Latitude": "22.718996",
        "direct": "東西雙向",
        "limit": "70"
      },
      {
        "CityName": "屏東縣",
        "RegionName": "內埔鄉",
        "Address": "台一線405.4K內埔豐田段南北雙向",
        "DeptNm": "屏東縣政府警察局",
        "BranchNm": "內埔分局",
        "Longitude": "120.552092",
        "Latitude": "22.626107",
        "direct": "南北雙向",
        "limit": "70"
      },
      {
        "CityName": "屏東縣",
        "RegionName": "內埔鄉",
        "Address": "台1線408.7公里學人路段",
        "DeptNm": "屏東縣政府警察局",
        "BranchNm": "內埔分局",
        "Longitude": "120.559699",
        "Latitude": "22.599407",
        "direct": "南向北",
        "limit": "50"
      },
      {
        "CityName": "屏東縣",
        "RegionName": "內埔鄉",
        "Address": "台1線408.7公里學人路段",
        "DeptNm": "屏東縣政府警察局",
        "BranchNm": "內埔分局",
        "Longitude": "120.559699",
        "Latitude": "22.599407",
        "direct": "北向南",
        "limit": "70"
      },
      {
        "CityName": "屏東縣",
        "RegionName": "內埔鄉",
        "Address": "內埔屏光路與復興路口",
        "DeptNm": "屏東縣政府警察局",
        "BranchNm": "內埔分局",
        "Longitude": "120.559727",
        "Latitude": "22.608567",
        "direct": "北向南",
        "limit": ""
      },
      {
        "CityName": "屏東縣",
        "RegionName": "內埔鄉",
        "Address": "屏東縣187丙線17.4K科大路南北雙向",
        "DeptNm": "屏東縣政府警察局",
        "BranchNm": "內埔分局",
        "Longitude": "120.578575",
        "Latitude": "22.644043",
        "direct": "南北雙向",
        "limit": "60"
      },
      {
        "CityName": "屏東縣",
        "RegionName": "竹田鄉",
        "Address": "189線20.1K大湖橋北上",
        "DeptNm": "屏東縣政府警察局",
        "BranchNm": "潮州分局",
        "Longitude": "120.510127",
        "Latitude": "22.579425",
        "direct": "南向北",
        "limit": "70"
      },
      {
        "CityName": "屏東縣",
        "RegionName": "竹田鄉",
        "Address": "台88線20.6K快速道路南下",
        "DeptNm": "屏東縣政府警察局",
        "BranchNm": "潮州分局",
        "Longitude": "120.522577",
        "Latitude": "22.570125",
        "direct": "北向南",
        "limit": "90"
      },
      {
        "CityName": "屏東縣",
        "RegionName": "竹田鄉",
        "Address": "台88線20.6K快速道路北上",
        "DeptNm": "屏東縣政府警察局",
        "BranchNm": "潮州分局",
        "Longitude": "120.522771",
        "Latitude": "22.570349",
        "direct": "南向北",
        "limit": "90"
      },
      {
        "CityName": "屏東縣",
        "RegionName": "竹田鄉",
        "Address": "台一線410.97K水源路段南北雙向",
        "DeptNm": "屏東縣政府警察局",
        "BranchNm": "潮州分局",
        "Longitude": "120.548683",
        "Latitude": "22.582087",
        "direct": "南北雙向",
        "limit": "70"
      },
      {
        "CityName": "屏東縣",
        "RegionName": "新埤鄉",
        "Address": "新埤鄉189線31.85K北向",
        "DeptNm": "屏東縣政府警察局",
        "BranchNm": "潮州分局",
        "Longitude": "120.549367",
        "Latitude": "22.487850",
        "direct": "北向",
        "limit": "50"
      },
      {
        "CityName": "屏東縣",
        "RegionName": "新埤鄉",
        "Address": "新埤鄉189線31.85K南向",
        "DeptNm": "屏東縣政府警察局",
        "BranchNm": "潮州分局",
        "Longitude": "120.549367",
        "Latitude": "22.487850",
        "direct": "南向",
        "limit": "60"
      },
      {
        "CityName": "屏東縣",
        "RegionName": "枋寮鄉",
        "Address": "台一線435.6k南北雙向",
        "DeptNm": "屏東縣政府警察局",
        "BranchNm": "枋寮分局",
        "Longitude": "120.591743",
        "Latitude": "22.394458",
        "direct": "北向南",
        "limit": "70"
      },
      {
        "CityName": "屏東縣",
        "RegionName": "新園鄉",
        "Address": "台17線253.5K與學仁路口北上",
        "DeptNm": "屏東縣政府警察局",
        "BranchNm": "東港分局",
        "Longitude": "120.455396",
        "Latitude": "22.487031",
        "direct": "南向北",
        "limit": "70"
      },
      {
        "CityName": "屏東縣",
        "RegionName": "新園鄉",
        "Address": "台17線東港大橋端",
        "DeptNm": "屏東縣政府警察局",
        "BranchNm": "東港分局",
        "Longitude": "120.456720",
        "Latitude": "22.480722",
        "direct": "南向北",
        "limit": "50"
      },
      {
        "CityName": "屏東縣",
        "RegionName": "新園鄉",
        "Address": "台27線74.3K興安段北向",
        "DeptNm": "屏東縣政府警察局",
        "BranchNm": "東港分局",
        "Longitude": "120.462867",
        "Latitude": "22.524467",
        "direct": "南向北",
        "limit": "60"
      },
      {
        "CityName": "屏東縣",
        "RegionName": "新園鄉",
        "Address": "台27線74.3K興安段南向",
        "DeptNm": "屏東縣政府警察局",
        "BranchNm": "東港分局",
        "Longitude": "120.462867",
        "Latitude": "22.524467",
        "direct": "北向南",
        "limit": "70"
      },
      {
        "CityName": "屏東縣",
        "RegionName": "新園鄉",
        "Address": "台27線71.1K仙公廟南北雙向",
        "DeptNm": "屏東縣政府警察局",
        "BranchNm": "東港分局",
        "Longitude": "120.465939",
        "Latitude": "22.551574",
        "direct": "南北雙向",
        "limit": "60"
      },
      {
        "CityName": "屏東縣",
        "RegionName": "崁頂鄉",
        "Address": "崁頂鄉187線32K南北雙向",
        "DeptNm": "屏東縣政府警察局",
        "BranchNm": "東港分局",
        "Longitude": "120.495754",
        "Latitude": "22.501558",
        "direct": "南北雙向",
        "limit": "50"
      },
      {
        "CityName": "屏東縣",
        "RegionName": "崁頂鄉",
        "Address": "屏75線3.8K與崁頂南二高平面道路路口南下",
        "DeptNm": "屏東縣政府警察局",
        "BranchNm": "東港分局",
        "Longitude": "120.518753",
        "Latitude": "22.541095",
        "direct": "北向南",
        "limit": "50"
      },
      {
        "CityName": "屏東縣",
        "RegionName": "崁頂鄉",
        "Address": "屏75線3.9K與崁頂南二高平面道路路口北上",
        "DeptNm": "屏東縣政府警察局",
        "BranchNm": "東港分局",
        "Longitude": "120.518829",
        "Latitude": "22.540650",
        "direct": "南向北",
        "limit": "50"
      },